stop_id,stop_name,stop_lat,stop_lon,stop_code,parent_station,wheelchair_boarding
1.111,Hospital de Bellvitge,41.344677,2.107242,111,P.6660111,1
1.112,Bellvitge,41.350975,2.110917,112,P.6660112,1
1.113,Av. Carrilet,41.358553,2.102632,113,P.6660113,1
1.1136,Trinitat Nova,41.449200,2.182366,1136,P.6660339,1
1.1137,Casa de l'Aigua,41.451278,2.184840,1137,P.6661137,1
1.1138,Torre Baró | Vallbona,41.459199,2.179925,1138,P.6661138,1
1.1139,Ciutat Meridiana,41.460808,2.174650,1139,P.6661139,1
1.114,Rbla. Just Oliveras,41.364090,2.099749,114,P.6660114,1
1.1140,Can Cuiàs,41.462413,2.173059,1140,P.6661140,1
1.115,Can Serra,41.367694,2.102758,115,P.6660115,1
1.116,Florida,41.368316,2.110027,116,P.6660116,1
1.117,Torrassa,41.368396,2.116594,117,P.6660117,1
1.118,Santa Eulàlia,41.368816,2.128617,118,P.6660118,1
1.119,Mercat Nou,41.373003,2.133536,119,P.6660119,1
1.120,Plaça de Sants,41.375353,2.138154,120,P.6660120,2
1.121,Hostafrancs,41.375254,2.143291,121,P.6660121,1
1.122,Espanya,41.375540,2.149450,122,P.6660122,2
1.123,Rocafort,41.379232,2.154562,123,P.6660123,1
1.124,Urgell,41.382487,2.158891,124,P.6660124,1
1.125,Universitat,41.385712,2.164012,125,P.6660125,1
1.126,Catalunya,41.387476,2.168958,126,P.6660126,1
1.127,Urquinaona,41.389636,2.174567,127,P.6660127,2
1.128,Arc de Triomf,41.392337,2.181165,128,P.6660128,1
1.129,Marina,41.394725,2.185801,129,P.6660129,1
1.130,Glòries,41.402277,2.187537,130,P.6660130,1
1.131,Clot,41.410163,2.187003,131,P.6660131,2
1.132,Navas,41.416187,2.187057,132,P.6660132,1
1.133,La Sagrera,41.422369,2.186975,133,P.6660133,1
1.134,Fabra i Puig,41.429633,2.183661,134,P.6660134,1
1.135,Sant Andreu,41.436600,2.191187,135,P.6660135,1
1.136,Torras i Bages,41.443225,2.190671,136,P.6660136,1
1.137,Trinitat Vella,41.448956,2.193837,137,P.6660137,1
1.138,Baró de Viver,41.449936,2.199563,138,P.6660138,1
1.139,Santa Coloma,41.451067,2.207969,139,P.6660139,1
1.140,Fondo,41.451583,2.218435,140,P.6660140,1
1.210,Paral·lel,41.375004,2.169117,210,P.6660210,1
1.211,Sant Antoni,41.379833,2.163241,211,P.6660211,1
1.212,Universitat,41.384768,2.163913,212,P.6660125,1
1.213,Passeig de Gràcia,41.389416,2.168243,213,P.6660213,1
1.214,Tetuan,41.394887,2.175559,214,P.6660214,1
1.215,Monumental,41.400524,2.179462,215,P.6660215,1
1.216,Sagrada Família,41.403985,2.175106,216,P.6660216,1
1.217,Encants,41.407236,2.182700,217,P.6660217,1
1.218,Clot,41.410334,2.186803,218,P.6660131,1
1.219,Bac de Roda,41.415162,2.195503,219,P.6660219,1
1.220,Sant Martí,41.419064,2.200724,220,P.6660220,1
1.221,La Pau,41.424033,2.205608,221,P.6660221,1
1.222,Verneda,41.430004,2.209883,222,P.6660222,1
1.223,Artigues | Sant Adrià,41.433848,2.217772,223,P.6660223,1
1.224,Sant Roc,41.435831,2.228606,224,P.6660224,1
1.225,Gorg,41.440237,2.233441,225,P.6660225,1
1.226,Pep Ventura,41.443905,2.237959,226,P.6660226,1
1.227,Badalona Pompeu Fabra,41.449054,2.244097,227,P.6660227,1
1.314,Zona Universitària,41.384115,2.111179,314,P.6660314,2
1.315,Palau Reial,41.385980,2.118538,315,P.6660315,1
1.316,Maria Cristina,41.387816,2.125791,316,P.6660316,1
1.317,Les Corts,41.384120,2.130871,317,P.6660317,1
1.318,Plaça del Centre,41.381922,2.135884,318,P.6660318,1
1.319,Sants Estació,41.381635,2.140946,319,P.6660319,1
1.320,Tarragona,41.378493,2.145336,320,P.6660320,1
1.321,Espanya,41.375018,2.151555,321,P.6660122,2
1.322,Poble Sec,41.374996,2.160245,322,P.6660322,1
1.323,Paral·lel,41.374892,2.169118,323,P.6660210,1
1.324,Drassanes,41.376538,2.175664,324,P.6660324,1
1.325,Liceu,41.381445,2.173030,325,P.6660325,1
1.326,Catalunya,41.386322,2.170092,326,P.6660126,1
1.327,Passeig de Gràcia,41.391603,2.165347,327,P.6660213,1
1.328,Diagonal,41.395888,2.160047,328,P.6660328,1
1.329,Fontana,41.402009,2.153022,329,P.6660329,1
1.330,Lesseps,41.405738,2.150407,330,P.6660330,1
1.331,Vallcarca,41.411975,2.144337,331,P.6660331,2
1.332,Penitents,41.418279,2.140972,332,P.6660332,1
1.333,Vall d'Hebron,41.425283,2.142565,333,P.6660333,1
1.334,Montbau,41.430620,2.145039,334,P.6660334,1
1.335,Mundet,41.435645,2.148472,335,P.6660335,1
1.336,Valldaura,41.437996,2.156878,336,P.6660336,1
1.337,Canyelles,41.441754,2.166388,337,P.6660337,1
1.338,Roquetes,41.447670,2.176098,338,P.6660338,1
1.339,Trinitat Nova,41.449500,2.184097,339,P.6660339,1
1.413,La Pau,41.423660,2.205217,413,P.6660221,1
1.414,Besòs,41.419919,2.210213,414,P.6660414,1
1.415,Besòs Mar,41.415099,2.216082,415,P.6660415,1
1.416,El Maresme | Forum,41.411780,2.216692,416,P.6660416,1
1.417,Selva de Mar,41.408001,2.209122,417,P.6660417,1
1.418,Poble Nou,41.403716,2.203371,418,P.6660418,2
1.419,Llacuna,41.399425,2.197712,419,P.6660419,1
1.420,Bogatell,41.395107,2.192012,420,P.6660420,1
1.421,Ciutadella | Vila Olímpica,41.386687,2.192991,421,P.6660421,2
1.422,Barceloneta,41.381811,2.184787,422,P.6660422,1
1.423,Jaume I,41.384126,2.178531,423,P.6660423,2
1.424,Urquinaona,41.387961,2.173445,424,P.6660127,2
1.425,Passeig de Gràcia,41.390057,2.167846,425,P.6660213,1
1.426,Girona,41.394920,2.170825,426,P.6660426,1
1.427,Verdaguer,41.400365,2.168060,427,P.6660427,2
1.428,Joanic,41.406427,2.163225,428,P.6660428,1
1.429,Alfons X,41.412377,2.166382,429,P.6660429,1
1.430,Guinardó | Hospital de Sant Pau,41.415962,2.173989,430,P.6660430,1
1.431,Maragall,41.423104,2.177397,431,P.6660431,2
1.432,Llucmajor,41.436985,2.173343,432,P.6660432,1
1.433,Via Júlia,41.443730,2.178550,433,P.6660433,1
1.434,Trinitat Nova,41.449156,2.182434,434,P.6660339,1
1.509,Cornellà Centre,41.357290,2.070428,509,P.6660509,1
1.510,Gavarra,41.357993,2.079269,510,P.6660510,1
1.511,Sant Ildelfons,41.363381,2.084393,511,P.6660511,1
1.512,Can Boixeres,41.366571,2.091506,512,P.6660512,1
1.513,Can Vidalet,41.371279,2.099445,513,P.6660513,1
1.514,Pubilla Cases,41.373838,2.107209,514,P.6660514,1
1.515,Collblanc,41.375743,2.119195,515,P.6660515,2
1.516,Badal,41.375581,2.127402,516,P.6660516,1
1.517,Plaça de Sants,41.375727,2.135159,517,P.6660120,2
1.518,Sants Estació,41.379955,2.140398,518,P.6660319,1
1.519,Entença,41.384467,2.145619,519,P.6660519,1
1.520,Hospital Clínic,41.388608,2.151081,520,P.6660520,1
1.521,Diagonal,41.394435,2.158830,521,P.6660328,1
1.522,Verdaguer,41.398952,2.167089,522,P.6660427,2
1.523,Sagrada Família,41.403835,2.173618,523,P.6660216,1
1.524,Sant Pau | Dos de Maig,41.410753,2.176016,524,P.6660524,1
1.525,Camp de l'Arpa,41.415060,2.181497,525,P.6660525,1
1.526,La Sagrera,41.421296,2.186582,526,P.6660133,1
1.527,Congrés,41.423440,2.181186,527,P.6660527,1
1.528,Maragall,41.425045,2.176485,528,P.6660431,2
1.529,Virrei Amat,41.429703,2.174913,529,P.6660529,1
1.530,Vilapicina,41.430465,2.167619,530,P.6660530,1
1.531,Horta,41.429692,2.159974,531,P.6660531,1
1.532,El Carmel,41.424450,2.155099,532,P.6660532,1
1.533,El Coll | La Teixonera,41.421997,2.148348,533,P.6660533,1
1.534,Vall d'Hebron,41.424993,2.142356,534,P.6660333,1
1.901,Aeroport T1,41.288295,2.071152,901,P.6660901,1
1.903,Aeroport T2,41.303823,2.073113,903,P.6660903,1
1.904,Mas Blau,41.311225,2.073471,904,P.6660904,1
1.905,Parc Nou,41.316628,2.087929,905,P.6660905,1
1.906,Cèntric,41.322250,2.093463,906,P.6660906,1
1.907,El Prat Estació,41.331993,2.089927,907,P.6660907,1
1.909,Les Moreres,41.329094,2.103019,909,P.6660909,1
1.910,Mercabarna,41.333485,2.111254,910,P.6660910,1
1.911,Parc Logístic,41.341664,2.127401,911,P.6660911,1
1.912,Fira,41.351988,2.130452,912,P.6660912,1
1.913,Europa | Fira,41.357560,2.125924,913,P.6660913,1
1.914,Can Tries | Gornal,41.360894,2.117993,914,P.6660914,1
1.915,Torrassa,41.368223,2.115756,915,P.6660117,1
1.916,Collblanc,41.376056,2.118397,916,P.6660515,1
1.918,Zona Universitària,41.383742,2.111621,918,P.6660314,1
1.930,La Sagrera,41.420494,2.186723,930,P.6660133,1
1.932,Onze de Setembre,41.429559,2.193564,932,P.6660932,1
1.933,Bon Pastor,41.436203,2.205294,933,P.6660933,1
1.934,Llefià,41.441360,2.216906,934,P.6660934,1
1.935,La Salut,41.442817,2.224737,935,P.6660935,1
1.936,Gorg,41.440443,2.233892,936,P.6660225,1
1.940,Can Peixauet,41.443986,2.210027,940,P.6660940,1
1.941,Santa Rosa,41.446850,2.215809,941,P.6660941,1
1.942,Fondo,41.451876,2.218485,942,P.6660140,1
1.943,Esglèsia Major,41.454797,2.212177,943,P.6660943,1
1.944,Singuerlin,41.459413,2.205429,944,P.6660944,1
1.945,Can Zam,41.456666,2.198569,945,P.6660945,1
1.9901,Paral·lel,41.373847,2.168853,9901,P.6660210,1
1.9902,Parc de Montjuïc,41.368956,2.163269,9902,P.6669902,1
2.1,Almogàvers-Àlaba,41.398547,2.191861,1,,
2.100,París-Enric Granados,41.393874,2.153649,100,,
2.1000,Santuari-La Murtra,41.419945,2.155085,1000,,
2.1001,Pl Gibraltar,41.420235,2.151004,1001,,
2.1002,Av de Vallcarca-Metro Penitents,41.418082,2.140920,1002,,
2.1003,Pl. Alfonso Comín-Pg. Vall d'Hebron,41.416211,2.138226,1003,,
2.1004,Metro Paral·lel,41.375031,2.170619,1004,,
2.1005,Pl. Josep Maria Folch,41.376156,2.166602,1005,,
2.1006,Ronda Sant Pau-Parlament,41.377920,2.164280,1006,,
2.1007,Av Meridiana-Biscaia,41.417607,2.186750,1007,,
2.1008,Pg Maragall-Trinxant,41.419027,2.180738,1008,,
2.1009,Mallorca-Navas de Tolosa,41.413975,2.189273,1009,,
2.1010,Olvan,41.429684,2.133275,1010,,
2.1011,Pl del Nou,41.353250,2.141139,1011,,
2.1014,Av. Verge de Montserrat-Coronel Sanfeliu,41.325506,2.094566,1014,,
2.1015,Av Verge de Montserrat-Enric Morera,41.326830,2.097336,1015,,
2.1016,Av Verge de Montserrat-Castella,41.325726,2.094473,1016,,
2.1017,Laureà Miró-Nord,41.378095,2.082201,1017,,
2.1018,Av Can Corts-Ctra d'Esplugues,41.357494,2.068283,1018,,
2.1019,Pg. Vall d'Hebron-Av. Jordà,41.424328,2.141720,1019,,
2.1020,Pg. Vall d'Hebron-Natzaret,41.421576,2.140501,1020,,
2.1021,Ardena-Ronda de Dalt,41.390617,2.107332,1021,,
2.1022,Pg Calvell-Rambla del Poblenou,41.397033,2.205785,1022,,
2.1023,Sant Adrià-Pg Enric Sanchís,41.436015,2.204051,1023,,
2.1024,Sant Adrià-Arbeca,41.436665,2.208288,1024,,
2.1025,Ronda de Dalt-Moneders,41.389978,2.108094,1025,,
2.1028,Pg Torras i Bages-Joan Torras,41.436982,2.191088,1028,,
2.103,Bisbe Català-Pl Pedralbes,41.396058,2.114509,103,,
2.1030,Av Ferrer i Guàrdia-Av Montanyans,41.367321,2.145062,1030,,
2.1033,Guipúscoa-Verneda,41.424778,2.208037,1033,,
2.1034,Laureà Miró-Primer de Maig,41.376933,2.092166,1034,,
2.1035,Via Favència-Molí,41.445946,2.180146,1035,,
2.1036,Aribau-Laforja,41.397926,2.147323,1036,,
2.1037,Pg Maragall-Manigua,41.422552,2.178893,1037,,
2.1039,Via Laietana-Comtal,41.387063,2.174794,1039,,
2.1040,Pl. Urquinaona,41.388783,2.173322,1040,,
2.1042,Riu Llobregat-Riu Cardener,41.317824,2.083265,1042,,
2.1043,Av Remolar-Av Onze de setembre,41.319834,2.090315,1043,,
2.1044,Av. del Remolar-Pl. de la Granja,41.318644,2.091294,1044,,
2.1045,Pg. Zona Franca-Motors,41.352282,2.144507,1045,,
2.1046,Pg. Zona Franca-Cisell,41.353751,2.143491,1046,,
2.1047,Felip II-Ramon Albó,41.427261,2.177781,1047,,
2.1048,Felip II-Pl. Congrés,41.425721,2.179802,1048,,
2.105,Guipúscoa-Bac de Roda,41.414970,2.195547,105,,
2.1051,Jerez-Pl de la Ciutadella,41.431347,2.155261,1051,,
2.1052,Rambla Sant Just-Major,41.380882,2.075103,1052,,
2.1053,Rambla Sant Just-Marqués de Monistrol,41.382967,2.074092,1053,,
2.1054,Hereter-Av Indústria,41.382749,2.071440,1054,,
2.1057,Constitució-Mossèn Amadeu Oller,41.369928,2.137750,1057,,
2.1058,Viladomat-Manso,41.376481,2.161440,1058,,
2.1059,Vilamarí-Av Mistral,41.375731,2.153416,1059,,
2.106,Guipúscoa-Bac de Roda,41.414919,2.194885,106,,
2.1061,Paral·lel-Vila i Vilà,41.374858,2.167291,1061,,
2.1062,Av Paral.lel - Lleida,41.374826,2.153056,1062,,
2.1063,Av Paral·lel-Pl Espanya,41.374832,2.152229,1063,,
2.1064,Av Paral·lel-Llançà,41.374833,2.152562,1064,,
2.1065,Pl de la Font Castellana-Tenerife,41.415206,2.166346,1065,,
2.1066,Mallorca-Pau Claris,41.395338,2.164454,1066,,
2.1067,Pl Urquinaona-Pau Claris,41.389329,2.172834,1067,,
2.1069,Metro Urquinaona,41.389020,2.172786,1069,,
2.1070,Gran Via-Pau Claris,41.390143,2.169377,1070,,
2.1071,Pl Urquinaona,41.389095,2.172533,1071,,
2.1072,Mallorca-Padilla,41.405590,2.178124,1072,,
2.1074,Ribes-Lepant,41.399547,2.184073,1074,,
2.1075,Pl Universitat,41.386070,2.163970,1075,,
2.1076,Pl Universitat-Pelai,41.385629,2.164493,1076,,
2.1078,València-Pg de Gràcia,41.392346,2.162948,1078,,
2.1079,Ronda Sant Pere-Pl Urquinaona,41.388581,2.171448,1079,,
2.108,Pl Espanya-FGC,41.374395,2.147976,108,,
2.1080,Diagonal-Pau Claris,41.396737,2.160649,1080,,
2.1081,Gran Via-Pau Claris,41.390295,2.169055,1081,,
2.1082,Ronda Sant Pere-Pl de Catalunya,41.388275,2.170633,1082,,
2.1086,Camèlies-Praga,41.413077,2.162952,1086,,
2.1088,Casanova-París,41.391286,2.151078,1088,,
2.1089,Rosselló-Bailèn,41.399765,2.165991,1089,,
2.109,Numància-Marquès de Sentmenat,41.384607,2.137456,109,,
2.1090,Metro Maresme/Forum,41.412074,2.216952,1090,,
2.1092,Guipúscoa-Rambla Prim,41.422866,2.205485,1092,,
2.1095,Borbó-Pg Maragall,41.426400,2.175874,1095,,
2.1097,Av Anselm Clavé-Manuel Bertrand,41.331717,2.095000,1097,,
2.1098,Diagonal-Francesc Macià,41.393154,2.145855,1098,,
2.1099,Josep Tarradellas-Comte Borrell,41.391524,2.144261,1099,,
2.110,Nicaragua-Josep Tarradellas,41.382902,2.141836,110,,
2.1101,Rambla de Sant Sebastià-Pl Vila,41.451151,2.208099,1101,,
2.1102,Av Barcelona-Francesc Macià,41.366845,2.060569,1102,,
2.1103,Pl. Catalunya-Portal de l'Àngel,41.386592,2.171069,1103,,
2.1104,Sardenya-Camèlies,41.413114,2.161533,1104,,
2.1107,Pla del Palau-Govern Civil,41.382899,2.183856,1107,,
2.1108,Av Marquès de l'Argentera-Pg Picasso,41.385091,2.185189,1108,,
2.1109,Pallars-Pere IV,41.397661,2.193203,1109,,
2.111,Pl del Bosc,41.469589,2.183906,111,,
2.1111,Rambla de Prim-Pere IV,41.418767,2.208814,1111,,
2.1113,Rambla Prim-Jaume Huguet,41.417259,2.211829,1113,,
2.1116,Gran de Gràcia-Lesseps,41.406176,2.150079,1116,,
2.1117,Gran de Gràcia,41.403474,2.152181,1117,,
2.1118,Av Príncep d'Astúries-Pl Lesseps,41.405660,2.150121,1118,,
2.1119,Av República Argentina-Escipió,41.408629,2.147061,1119,,
2.112,Bifurcació-del Molí,41.471805,2.183416,112,,
2.1120,Mitre-Berna,41.405622,2.146637,1120,,
2.1122,Pl Lesseps-Riera de Vallcarca,41.406744,2.149511,1122,,
2.1123,Av Príncep d'Astúries-Carolines,41.403638,2.150081,1123,,
2.1124,Ronda Universitat-Pl Universitat,41.386274,2.165311,1124,,
2.1127,Pg. Lluís Companys-Arc de Triomf,41.390690,2.180252,1127,,
2.1128,Pg. Lluís Companys-Jutjats,41.388838,2.182697,1128,,
2.1129,Parc de la Ciutadella-Princesa,41.387804,2.183054,1129,,
2.113,Bifurcació-Pl Sant Joan,41.469672,2.180891,113,,
2.1130,Pg Picasso-Jutjats,41.388363,2.182087,1130,,
2.1131,Bac de Roda-Llull,41.405568,2.206712,1131,,
2.1133,Rambla Prim-Llull,41.413108,2.217352,1133,,
2.1135,Pau Claris-Rosselló,41.396467,2.162074,1135,,
2.1136,Pg de Gràcia-Mallorca,41.393522,2.163363,1136,,
2.1137,Casanova-Mercat del Ninot,41.388597,2.154626,1137,,
2.1138,Pg. de Sant Joan-València,41.398843,2.170462,1138,,
2.114,Bifurcació-Ctra Nacional 152,41.466940,2.178884,114,,
2.1140,Padilla-Mallorca,41.405645,2.177352,1140,,
2.1141,Av Gaudí,41.405772,2.174817,1141,,
2.1142,Independència-Mallorca,41.408977,2.181904,1142,,
2.1143,Dos de Maig-Rosselló,41.408911,2.179491,1143,,
2.1144,Pg de Gràcia-Rosselló,41.395893,2.160116,1144,,
2.1145,Pg Jaume I-Pl Lluís Companys,41.482075,2.188604,1145,,
2.1146,Montbau,41.433033,2.141504,1146,,
2.1147,Pg. Vall d'Hebron-Poesia,41.430667,2.144754,1147,,
2.1148,Pg Vall d'Hebron-Mundet,41.435426,2.147379,1148,,
2.115,Ctra Nacional 152-Bifurcació,41.467071,2.178991,115,,
2.1150,Vayreda-Arquitectura,41.430385,2.140176,1150,,
2.1153,Pl Catalunya,41.321642,2.093474,1153,,
2.1155,Lleida-Ctra de l' Aviació,41.321557,2.093548,1155,,
2.1156,Av del Parc-Bellaterra,41.358927,2.073605,1156,,
2.1157,Av del Parc-Bonavista,41.359578,2.075877,1157,,
2.1158,Pg Torras i Bages-Residència,41.439348,2.191109,1158,,
2.1159,Pg Torras i Bages-Residència,41.441809,2.190935,1159,,
2.116,Mina-del Molí,41.469157,2.180794,116,,
2.1160,Pg de Torras i Bages-Pg de Santa Coloma,41.444562,2.190558,1160,,
2.1161,Pg de Torras i Bages-Palomar,41.442298,2.190707,1161,,
2.1163,Pg Picasso-Princesa,41.387133,2.183523,1163,,
2.1164,Pla de Palau-Pl. Pau Vila,41.382550,2.185005,1164,,
2.1166,Av Meridiana-Estació d'Autobusos Fabra i Puig,41.430561,2.183016,1166,,
2.1167,C A P Sant Andreu,41.433332,2.183621,1167,,
2.1168,S'Agaró-Llosa,41.449237,2.187541,1168,,
2.117,Av de la Ribera-Pl de la Ribera,41.476795,2.189000,117,,
2.1170,Riera d'Horta-Vèlia,41.427848,2.180303,1170,,
2.1171,Mina de la Ciutat-Pla de Fornells,41.447861,2.175191,1171,,
2.1172,Via Favència-I E S Guineueta,41.443450,2.172257,1172,,
2.1173,Gran Via-Química,41.365862,2.137315,1173,,
2.1174,Artesania-Antonio Machado,41.445167,2.170970,1174,,
2.1175,Almagro-Quarter de Simancas,41.444309,2.172295,1175,,
2.1176,Via Favència-Palamós,41.446496,2.184238,1176,,
2.1178,Pont del Treball-Cantàbria,41.421948,2.197069,1178,,
2.1179,Rambla de Prim-Ronda Sant Martí,41.427330,2.197687,1179,,
2.118,Bolívar-Ballester,41.409254,2.147712,118,,
2.1180,Rambla Prim-Binèfar,41.424160,2.201886,1180,,
2.1181,Rambla Prim-Guipúscoa,41.422359,2.204269,1181,,
2.1187,Camí de Sant Genís-Natzaret,41.428088,2.137191,1187,,
2.1188,Natzaret-Saldes,41.427715,2.137139,1188,,
2.1189,Cantàbria-Rambla de Guipúscoa,41.419365,2.201707,1189,,
2.119,Av de Vallcarca-Pl Lesseps,41.408484,2.149067,119,,
2.1190,Bac de Roda-Gran Via,41.412493,2.197521,1190,,
2.1191,Bilbao-Concili de Trento,41.411335,2.192025,1191,,
2.1192,Rambla Prim-Concili de Trento,41.421742,2.205085,1192,,
2.1193,Jorge Manrique-Can Travi,41.431561,2.149490,1193,,
2.1194,Badal-Constitució,41.368597,2.132776,1194,,
2.1195,Vallcarca,41.413062,2.144236,1195,,
2.1196,Isaac Newton-Lleó XIII,41.414895,2.135836,1196,,
2.1197,Ctra d'Esplugues-Oliverar,41.366651,2.077829,1197,,
2.1198,Av Sant Ildefons-Dàlia,41.362154,2.082364,1198,,
2.1199,Av Sant Ildefons-Marfull,41.360524,2.081165,1199,,
2.12,Llinars-Santander,41.434755,2.207305,12,,
2.120,Av Príncep d'Astúries-Rambla de Prat,41.401525,2.151230,120,,
2.1200,Ctra d'Esplugues-La Miranda,41.361136,2.072780,1200,,
2.1201,Ctra d'Esplugues-Pl del Sol,41.364401,2.075946,1201,,
2.1202,Av de Sant Ildefons-Avet,41.365504,2.082789,1202,,
2.1203,Av de Sant Ildefons-Ctra d'Esplugues,41.367303,2.080390,1203,,
2.1204,Pg. Santa Coloma-Pl de la Modernitat,41.446179,2.193450,1204,,
2.1205,Pg. Santa Coloma-Tiana,41.448313,2.199544,1205,,
2.1206,Riu Llobregat-Ronda del Sud,41.316126,2.091060,1206,,
2.1207,Mallorca-Pg de Gràcia,41.393336,2.161799,1207,,
2.1208,Pl de Catalunya-Rambla Catalunya,41.387575,2.168831,1208,,
2.1209,Gran Via-Balmes,41.387931,2.166431,1209,,
2.121,Còrsega-Bailèn,41.401312,2.165590,121,,
2.1210,Pl. Catalunya-Pg. de Gràcia,41.387757,2.169316,1210,,
2.1211,Rambla Sant Just-Ctra Reial,41.379351,2.075892,1211,,
2.1212,Rambla Sant Just-Catalunya,41.380340,2.075249,1212,,
2.1213,Anselm Clavé-Av Catalunya,41.492142,2.183393,1213,,
2.1214,Ramiro de Maeztu-Pl Sanllehy,41.413971,2.160694,1214,,
2.1215,Ramiro de Maeztu-Miquel Sants Oliver,41.415147,2.158465,1215,,
2.1216,Ctra del Carmel-Parc Güell,41.415707,2.155426,1216,,
2.1217,Ctra del Carmel-Albert Llanas,41.416462,2.156469,1217,,
2.1218,Ctra del Carmel-Pl Raimon Casellas,41.416835,2.158833,1218,,
2.1219,Ctra del Carmel-Can Xirot,41.416974,2.156465,1219,,
2.122,Pl Mossèn Jacint Verdaguer,41.398881,2.168610,122,,
2.1220,Parc Güell,41.415506,2.155097,1220,,
2.1221,Ctra del Carmel-Ramiro de Maeztu,41.415646,2.156804,1221,,
2.1222,Ramiro de Maeztu-Av Pompeu Fabra,41.414884,2.158604,1222,,
2.1223,Ramiro de Maeztu-C N Catalunya,41.415782,2.156793,1223,,
2.1224,Mallorca-Rogent,41.410324,2.184429,1224,,
2.1225,Sant Antoni Maria Claret-Nàpols,41.404900,2.165876,1225,,
2.1226,Pg. Pujades-Parc de la Ciutadella,41.390461,2.185365,1226,,
2.1227,Mallorca-Pg. Sant Joan,41.399839,2.170428,1227,,
2.1228,València-Pg. Sant Joan,41.398963,2.171747,1228,,
2.1229,Pl Tetuan-Gran Via,41.395093,2.176312,1229,,
2.123,Arc de Triomf,41.391274,2.178718,123,,
2.1230,Gran Via-Roger de Flor,41.396190,2.176898,1230,,
2.1231,Almogàvers-Roger de Flor,41.391709,2.182676,1231,,
2.1232,Pg Maragall-Ronda Guinardó,41.424242,2.177086,1232,,
2.1233,Padilla-Travessera de Gràcia,41.410353,2.171144,1233,,
2.1234,Padilla-Mas Casanovas,41.411644,2.169474,1234,,
2.1235,Pg Maragall-Av Frederic Rahola,41.427763,2.164694,1235,,
2.1236,Pedrell-Font d'en Fargas,41.424465,2.166170,1236,,
2.1237,Pedrell-Av Frederic Rahola,41.424246,2.168382,1237,,
2.1238,Estadi del Futbol Club Barcelona,41.380455,2.125055,1238,,
2.1239,Metro Collblanc,41.375678,2.119920,1239,,
2.1240,Av Meridiana-Av Rio de Janeiro,41.443041,2.186210,1240,,
2.1242,Pg Valldaura-Av Rio de Janeiro,41.439440,2.182604,1242,,
2.1243,Montserrat de Casanovas-Marí,41.422414,2.161914,1243,,
2.1244,Montserrat de Casanovas-Passerell,41.421547,2.159241,1244,,
2.1246,Gran Via-Llúria,41.391937,2.171236,1246,,
2.1247,València-Roger de Llúria,41.394666,2.166028,1247,,
2.1248,Rocafort-Provença,41.383427,2.147725,1248,,
2.125,Metro Tetuan,41.393790,2.174219,125,,
2.1252,Pg Vall d'Hebron-Basses d'Horta,41.425199,2.142908,1252,,
2.1253,Josep Tarradellas-Paris,41.386410,2.142976,1253,,
2.1254,Gran Via-Entença,41.378385,2.153719,1254,,
2.1255,Sepúlveda-Rocafort,41.377377,2.154670,1255,,
2.1257,Pl de Catalunya-Ronda Sant Pere,41.387727,2.170547,1257,,
2.1258,Pl Catalunya-Bergara,41.385362,2.170425,1258,,
2.1259,Collblanc-Cardenal Reig,41.375919,2.114639,1259,,
2.126,Mercat de la Concepció,41.396988,2.169109,126,,
2.1260,Gran de Gràcia-Travessera de Gràcia,41.400230,2.155103,1260,,
2.1261,Gran de Gràcia-Metro Fontana,41.401809,2.153274,1261,,
2.1262,Pl. Gal·la Placídia,41.399564,2.152292,1262,,
2.1263,Bruc-Còrsega,41.398840,2.163439,1263,,
2.1264,Villarroel-Hospital Clínic,41.389382,2.151134,1264,,
2.1265,Pg de Sant Joan-Rosselló,41.401263,2.166750,1265,,
2.1266,Rocafort-Jardins de Montserrat,41.385053,2.145576,1266,,
2.1267,Calàbria-Provença,41.385100,2.147956,1267,,
2.1268,Muntaner-Roselló,41.391059,2.153439,1268,,
2.1269,Av Gaudí,41.404926,2.173958,1269,,
2.127,Segre-Pl de Can Fabra,41.434573,2.192089,127,,
2.1271,Pl de Catalunya-Bergara,41.386552,2.169525,1271,,
2.1273,Llull-Llacuna,41.400066,2.201020,1273,,
2.1274,Pujades-Bilbao,41.403014,2.202360,1274,,
2.1278,Marina-Doctor Trueta,41.390944,2.192181,1278,,
2.1279,Av Elies Pagès,41.428364,2.132870,1279,,
2.128,Segre-Pl Orfila,41.435750,2.191468,128,,
2.1281,Ramon Trias Fargas-Pg. Marítim,41.385810,2.196459,1281,,
2.1282,Platja de la Barceloneta,41.380519,2.192974,1282,,
2.1283,Platja de la Barceloneta,41.380513,2.193130,1283,,
2.1284,Hospital del Mar,41.383169,2.194609,1284,,
2.1285,Ramon Trias Fargas-Ronda Litoral,41.386274,2.195852,1285,,
2.1289,La Rambla-Pl del Teatre,41.378617,2.175699,1289,,
2.129,Av de Vallcarca-Ballester,41.409625,2.147621,129,,
2.1290,La Rambla-Liceu,41.381611,2.173078,1290,,
2.1292,La Rambla-Palau de la Virreina,41.382420,2.171942,1292,,
2.1295,La Rambla-La Boqueria,41.381421,2.172813,1295,,
2.1296,La Rambla-Font de Canaletes,41.385053,2.170125,1296,,
2.1297,Mallorca-Marina,41.403954,2.175937,1297,,
2.1298,Gran Via-Sardenya,41.398739,2.180295,1298,,
2.1299,Verge de Montserrat-Sanllehy,41.413192,2.160759,1299,,
2.13,Sas-Claramunt,41.437591,2.204183,13,,
2.130,Pg. Lluís Companys-Parc de la Ciutadella,41.389501,2.183528,130,,
2.1300,Pi i Margall-Pl Alfons el Savi,41.411285,2.164456,1300,,
2.1301,Pi i Margall-Sardenya,41.409788,2.164282,1301,,
2.1302,Buenaventura Muñoz-Sardenya,41.393584,2.187546,1302,,
2.1305,Pg Maragall-Indústria,41.415155,2.180784,1305,,
2.1306,Marina-Indústria,41.407498,2.170596,1306,,
2.1307,Pg de Sant Joan-Travessera de Gràcia,41.403929,2.163188,1307,,
2.1310,Gran Via-Santa Dorotea,41.371705,2.144880,1310,,
2.1311,Rocafort-Gran Via,41.378360,2.154427,1311,,
2.1313,Via Augusta-Tres Reis,41.404143,2.118016,1313,,
2.1314,Josep Sangenís-Dante Alighieri,41.425218,2.152039,1314,,
2.1315,Josep Sangenís-Santa Gemma,41.423980,2.148792,1315,,
2.1316,Verge de Montserrat-Praga,41.414180,2.162303,1316,,
2.1318,València-Diagonal,41.400688,2.174058,1318,,
2.1319,Gran Via-Roger de Flor,41.396101,2.177304,1319,,
2.1321,Mare de Déu de la Salut-Hospital de l'Esperança,41.410346,2.154882,1321,,
2.1323,Pg. Zona Franca-Cisell,41.354767,2.143169,1323,,
2.1324,Santa Rosalia-Sant Dalmir,41.423238,2.148815,1324,,
2.1325,La Rambla-Santa Mònica,41.377785,2.175823,1325,,
2.1326,Paral·lel-Drassanes,41.374741,2.175031,1326,,
2.1327,Pi i Margall-Secretari Coloma,41.409576,2.163956,1327,,
2.1328,Camèlies-Secretari Coloma,41.411206,2.159536,1328,,
2.1329,Providència-Pi i Margall,41.410366,2.163590,1329,,
2.133,Via Augusta-Pau Alcover,41.398431,2.125934,133,,
2.1330,Camèlies-Ca L'alegre de Dalt,41.410763,2.158688,1330,,
2.1332,Parlament-Comte Borrell,41.377129,2.163558,1332,,
2.1335,Escorial-Pl Joanic,41.406114,2.162517,1335,,
2.1336,Pg Lloreç Serra-Sant Joaquim,41.450453,2.205721,1336,,
2.1339,Dublín-Meridiana,41.428613,2.185140,1339,,
2.134,Pg Bonanova,41.399943,2.124038,134,,
2.1340,Av Meridiana-Riera de Sant Andreu,41.435495,2.184425,1340,,
2.1341,Bartrina-Pont del Dragó,41.439525,2.186133,1341,,
2.1342,Pl de Mossèn Clapés,41.441726,2.187520,1342,,
2.1344,Onze de Setembre-Virgili,41.430162,2.193125,1344,,
2.1345,Pg Maragall-Segle XX,41.422798,2.178417,1345,,
2.1347,Les Agudes 27,41.463640,2.178338,1347,,
2.1348,Les Agudes-Fusters,41.463850,2.175157,1348,,
2.1349,Les Agudes,41.462551,2.173653,1349,,
2.1350,Torrent del Bosc,41.462200,2.174039,1350,,
2.1351,Rovira i Virgili-Parc de la Pegaso,41.427935,2.189161,1351,,
2.1352,Balmes-Mitre,41.404843,2.140169,1352,,
2.1353,Balmes-Joaquim Folguera,41.406784,2.138735,1353,,
2.1354,Balmes-Pl. John F. Kennedy,41.409453,2.137364,1354,,
2.1358,Av Tibidabo-Josep Maria Florensa,41.412905,2.134954,1358,,
2.136,Josep Tarradellas-Av de Sarrià,41.390958,2.144053,136,,
2.1360,Pl Bonanova,41.406603,2.133762,1360,,
2.1361,Riera Blanca-Travessera de les Corts,41.376050,2.121489,1361,,
2.1362,Badal-Sants,41.375223,2.130779,1362,,
2.1363,Rambla del Brasil-Violant d'Hongria,41.378894,2.128986,1363,,
2.1364,Metro Pl. de Sants,41.375417,2.137602,1364,,
2.1365,Sants-Premià,41.375385,2.139312,1365,,
2.1366,Villarroel-Sepúlveda,41.381507,2.161561,1366,,
2.1367,Paral·lel-Tamarit,41.374889,2.155468,1367,,
2.1368,Lleida-Tamarit,41.373734,2.154797,1368,,
2.1369,Lleida-Av Paral·lel,41.374271,2.154330,1369,,
2.137,Floridablanca-Viladomat,41.378171,2.158158,137,,
2.1370,Calàbria-Av Mistral,41.377237,2.158372,1370,,
2.1372,Pg. Vall d'Hebron-Patronat Ribes,41.422341,2.141293,1372,,
2.1373,Arizala-Les Corts,41.378573,2.123687,1373,,
2.1374,Comandant Benítez-Av Madrid,41.379161,2.127799,1374,,
2.1376,Carles III-Maria Cristina,41.387544,2.126960,1376,,
2.1377,Nicaragua-Parc Les Corts,41.386253,2.137775,1377,,
2.1378,Carles III-Mejía Lequerica,41.384214,2.127233,1378,,
2.1379,Gran Via Carles III-Av Madrid,41.379980,2.129228,1379,,
2.138,València-Comte d'Urgell,41.386020,2.154537,138,,
2.1380,Numància-Diagonal,41.389153,2.132859,1380,,
2.1381,Entença-Montnegre,41.388533,2.139463,1381,,
2.1382,Estació de França,41.384839,2.185399,1382,,
2.1383,Riu Llobregat-Sant Cosme,41.316289,2.091030,1383,,
2.1384,Riu Llobregat-Riu Xuquer,41.316597,2.087617,1384,,
2.1385,Providència-Torrent de les Flors,41.407901,2.158928,1385,,
2.1386,Aribau-Diagonal,41.395208,2.150395,1386,,
2.1387,Gal·la Placídia,41.399203,2.152383,1387,,
2.1388,Pg de Sant Joan-Sant Antoni Maria Claret,41.404456,2.163274,1388,,
2.1389,Via Augusta-Diagonal,41.396070,2.155560,1389,,
2.139,Mallorca-Comte d'Urgell,41.386791,2.153119,139,,
2.1390,Balmes-Travessera de Gràcia,41.398281,2.151128,1390,,
2.1391,Gran de Gràcia-Jesús,41.398356,2.157307,1391,,
2.1392,Muntaner-Via Augusta,41.398566,2.143501,1392,,
2.1393,Muntaner-Laforja,41.396893,2.145728,1393,,
2.1394,Torrent de l'Olla-Astúries,41.403393,2.155744,1394,,
2.1395,Lepant-Travessera de Gràcia,41.409501,2.169922,1395,,
2.1396,Lepant-Guinardó,41.411698,2.167011,1396,,
2.1397,Av Tibidabo-Carrer número 15,41.415414,2.129421,1397,,
2.140,Paral·lel-Ronda Sant Pau,41.375061,2.167171,140,,
2.1400,Cantunis,41.352088,2.158292,1400,,
2.1402,Pg de Fabra i Puig-Torrent Can Mariner,41.432114,2.163084,1402,,
2.1403,Fabra i Puig-Petrarca,41.430524,2.168028,1403,,
2.1404,Fabra i Puig-Petrarca,41.430349,2.168059,1404,,
2.1405,Guipúscoa-Selva de Mar,41.417419,2.198229,1405,,
2.1407,Dante Alighieri-Sacedón,41.426092,2.154499,1407,,
2.1408,Pare Pérez del Pulgar-Pare Manjon,41.454353,2.190832,1408,,
2.141,Tamarit-Viladomat,41.378339,2.160450,141,,
2.1410,Dante Alighieri-Tolrà,41.426862,2.155401,1410,,
2.1411,Av de Cornellà-St Francesc Xavier,41.373696,2.084743,1411,,
2.1412,Verge de Montserrat-Periodistes,41.421689,2.174279,1412,,
2.1413,Av. Pedralbes-Tòquio,41.390079,2.119079,1413,,
2.1414,Josep Tarradellas-Numància,41.381164,2.142089,1414,,
2.1418,Pg. Santa Coloma-Baró de Viver,41.448568,2.199742,1418,,
2.1419,Pg. Santa Coloma-Nus de la Trinitat,41.446408,2.193568,1419,,
2.1420,Pg Torras i Bages-Almirall Pròixida,41.441380,2.190771,1420,,
2.1424,Costa Pacheco 26,41.428102,2.131249,1424,,
2.1425,Diagonal-Balmes,41.395446,2.154913,1425,,
2.1426,Calvet-Tenor Viñas,41.396011,2.141827,1426,,
2.1427,Pg Vall d'Hebron-Ctra d'Horta,41.437974,2.153169,1427,,
2.1428,Ctra d'Horta-Av Estatut de Catalunya,41.437428,2.153491,1428,,
2.1430,Pl de l'Estatut,41.430787,2.155194,1430,,
2.1432,Av Meridiana-Mallorca,41.412883,2.187051,1432,,
2.1434,Av Granvia-Can Tries,41.354971,2.122077,1434,,
2.1435,Sant Adrià-Sas,41.436122,2.203700,1435,,
2.1436,Ciutat d'Asunción-Sant Adrià,41.436467,2.200978,1436,,
2.1437,Via Júlia-Turó Blau,41.439283,2.175525,1437,,
2.1438,Ctra de Collblanc-Pg del Cementiri,41.375970,2.111582,1438,,
2.1440,Pg Vall d'Hebron-Scala Dei,41.439088,2.157768,1440,,
2.1441,Pg Vall d'Hebron-Cementiri d'Horta,41.439719,2.158333,1441,,
2.1442,Av Verge de Montserrat-Frederic Soler,41.326824,2.097886,1442,,
2.1443,Pl del Doctor Andreu-Funicular del Tibidabo,41.416444,2.130774,1443,,
2.1444,Parc Municipal Font del Racó,41.415508,2.129658,1444,,
2.1446,Arbeca-Lima,41.439255,2.208038,1446,,
2.1447,Ctra del Carmel-Pasteur,41.417216,2.158452,1447,,
2.1448,Ctra del Carmel-Mühlberg,41.417956,2.157657,1448,,
2.1449,Ctra del Carmel-Gran Vista,41.418135,2.157371,1449,,
2.1451,Guipúscoa-Cantàbria,41.419864,2.202078,1451,,
2.1452,Av Catalunya-Serra d'Or,41.493949,2.182343,1452,,
2.1453,Pg Guayaquil-Arbeca,41.439493,2.208097,1453,,
2.1454,Caracas-Pl Fra Juníper Serra,41.439314,2.203622,1454,,
2.1455,Ciutat d'Asunción-Potosí,41.441671,2.199823,1455,,
2.1456,El Parador,41.382440,2.074191,1456,,
2.1457,Bateria-Bifurcació,41.472248,2.184148,1457,,
2.1458,Av dels Països Catalans-Gaietà Faura,41.379549,2.094527,1458,,
2.1459,Av dels Països Catalans-Laureà Miró,41.378124,2.092118,1459,,
2.146,Rosselló-Bruc,41.398075,2.163744,146,,
2.1460,Av de Cornellà-Manuel Riera,41.374844,2.086176,1460,,
2.1461,Av de Cornellà-Pont d'Esplugues,41.376825,2.088863,1461,,
2.1466,Còrsega-Hospital Clínic,41.389596,2.150045,1466,,
2.1467,París-Comte d'Urgell,41.389461,2.147794,1467,,
2.1468,Gran Via-Villarroel,41.382694,2.158922,1468,,
2.1469,Gran Via-Urgell,41.382423,2.159086,1469,,
2.147,Diagonal-Bruc,41.398196,2.165846,147,,
2.1472,Av Tibidabo-Josep Garí,41.415098,2.133486,1472,,
2.1473,Av Tibidabo-Lluís Muntadas,41.415390,2.131297,1473,,
2.1474,Arquitecte Moragas-Jorge Manrique,41.432676,2.147466,1474,,
2.1476,Pla de Palau,41.382081,2.184130,1476,,
2.1477,Pas Sota Muralla-Pl. Pau Vila,41.381164,2.184435,1477,,
2.1479,Port Vell,41.377126,2.183355,1479,,
2.148,Ronda Sant Pere-Girona,41.390249,2.175962,148,,
2.1482,Maremagnum,41.375717,2.182396,1482,,
2.1483,Port Vell,41.377040,2.183502,1483,,
2.1484,Jordi Girona-Tinent Coronel Valenzuela,41.387580,2.114335,1484,,
2.1485,Sant Martí de l'Erm-Zona Esportiva Fontsanta,41.371552,2.069892,1485,,
2.1486,Jacint Verdaguer-Fructuós Gelabert,41.373356,2.069013,1486,,
2.1487,Via Favència-Lucena,41.444874,2.176011,1487,,
2.1488,Villarroel-Mercat del Ninot,41.386799,2.154554,1488,,
2.1489,Av Meridiana-Aragó,41.409495,2.187138,1489,,
2.149,Gran Via-Llúria,41.391870,2.171675,149,,
2.1490,Pau Claris-Mallorca,41.394548,2.164609,1490,,
2.1491,Calàbria-Aragó,41.382530,2.151366,1491,,
2.1492,Pg de Sant Joan-Pl Mossèn Jacint Verdaguer,41.398624,2.170429,1492,,
2.1493,Balmes-València,41.391139,2.160075,1493,,
2.1494,Av Meridiana-Pl del Doctor Serrat,41.411333,2.186716,1494,,
2.1495,Muntaner-València,41.388468,2.156873,1495,,
2.1497,Pg de Gràcia-València,41.393348,2.163272,1497,,
2.1498,Lepant-Mallorca,41.404160,2.176964,1498,,
2.1499,Metro Tarragona,41.378369,2.145213,1499,,
2.15,Via Favència-Almagro,41.443910,2.172055,15,,
2.1501,Av Alzinar-Castelladral,41.462493,2.183234,1501,,
2.1503,Castelladrall-Oristà,41.463882,2.185188,1503,,
2.1508,Av de Vallcarca-Viaducte de Vallcarca,41.412055,2.144333,1508,,
2.1509,Av República Argentina-Mare de Déu del Carmel,41.412082,2.140285,1509,,
2.151,Av de Cornellà-Montesa,41.369641,2.081109,151,,
2.1510,Doctor Pi i Molist-Andratx,41.432809,2.173530,1510,,
2.1511,Pla de las Madres de la Plaza de Mayo,41.435217,2.172227,1511,,
2.1515,Pg deTorras i Bages-Via Favència,41.445864,2.190654,1515,,
2.1517,Via Júlia-Mas Duran,41.443511,2.178736,1517,,
2.1518,Via Júlia-Via Favència,41.445409,2.179556,1518,,
2.1519,Pl Karl Marx-Pg. Valldaura,41.439733,2.163211,1519,,
2.152,Rambla dels Països Catalans-Ptge Formentera,41.491076,2.185283,152,,
2.1520,Diagonal-Pg. de Gràcia,41.396809,2.160304,1520,,
2.1522,Av Príncep d'Astúries-Via Augusta,41.401226,2.151112,1522,,
2.1525,Travessera de Gràcia-Balmes,41.397810,2.152365,1525,,
2.1527,Via Augusta-Amigó,41.398060,2.140766,1527,,
2.1528,Via Augusta-Ganduxer,41.397705,2.135855,1528,,
2.1529,Balmes-Mitre,41.404222,2.141040,1529,,
2.153,Joan Valentí Escales-Doctor Pagès,41.447347,2.217717,153,,
2.1530,Balmes-Copèrnic,41.402521,2.145037,1530,,
2.1531,Pg Bonanova-Escoles Pies,41.403395,2.127532,1531,,
2.1532,Pg Bonanova-Carrasco i Formiguera,41.401266,2.123720,1532,,
2.1533,Av Príncep d'Astúries-Guillem Tell,41.402807,2.150030,1533,,
2.1534,Pl Borràs,41.404850,2.117524,1534,,
2.1535,Muntaner-Parc de Monterols,41.401245,2.139928,1535,,
2.1536,Muntaner-Plató,41.399861,2.141780,1536,,
2.1538,Pl Borràs,41.403958,2.117183,1538,,
2.1539,Adrià Margarit-Teodor Roviralta,41.414158,2.131206,1539,,
2.154,Pg Valldaura-Pg Andreu Nin,41.439280,2.182503,154,,
2.1540,Rotonda de Bellesguard,41.410505,2.126163,1540,,
2.1541,Pl de Benet XV,41.406232,2.120387,1541,,
2.1542,Av de Vallcarca-Capellades,41.419111,2.140921,1542,,
2.1543,Av República Argentina-Pl Alfonso Comín,41.413428,2.138571,1543,,
2.1544,Poesia-Jardins de Montbau,41.431955,2.144059,1544,,
2.1545,Floridablanca-Comte d'Urgell,41.380647,2.161455,1545,,
2.1546,Buenos Aires-Comte d' Urgell,41.392024,2.146621,1546,,
2.1547,Torre de Collserola,41.418902,2.116738,1547,,
2.1548,Aiguablava-Nou Barris,41.447383,2.180500,1548,,
2.1549,Almansa-Jaume Martí,41.442702,2.175299,1549,,
2.1552,Av de la Ribera-Llevant,41.476868,2.189100,1552,,
2.1553,Av Anselm Clavé-Les Moreres,41.333873,2.100376,1553,,
2.1554,Josep Tarradellas-Viladomat,41.389195,2.143560,1554,,
2.1555,Londres-Hospital del Sagrat Cor,41.389812,2.145813,1555,,
2.1556,Gran Via-Viladomat,41.380036,2.155913,1556,,
2.1557,Comte Borrell-Tamarit,41.378813,2.160608,1557,,
2.1558,Parlament-Av Paral·lel,41.375499,2.161378,1558,,
2.1559,Gran Via-Llançà,41.376261,2.151148,1559,,
2.156,Espronceda-Pl Islàndia,41.417606,2.188244,156,,
2.1560,Av de Roma-Entença,41.382051,2.146801,1560,,
2.1563,Camí del Polvorí-Estadi Serrahima,41.366194,2.144103,1563,,
2.1564,Segura-Estadi Serrahima,41.364340,2.143510,1564,,
2.1565,Segura-Barri del Polvorí,41.365407,2.141652,1565,,
2.1566,Segura-Fortuna,41.365312,2.141662,1566,,
2.1567,Segura-Polvorí,41.364375,2.143334,1567,,
2.1569,Polvorí-Av Ferrer i Guàrdia,41.368073,2.144628,1569,,
2.1570,Av. J.V.Foix-Pedró de la Creu,41.395544,2.119956,1570,,
2.1571,Av. J.V.Foix-Santa Amèlia,41.393336,2.121085,1571,,
2.1572,Via Augusta-Anglí,41.397833,2.129200,1572,,
2.1573,Via Augusta-Els Vergós,41.398257,2.125753,1573,,
2.1575,Marquès de Sentmenat-Numància,41.384969,2.136713,1575,,
2.1576,Av. Madrid-Joan Güell,41.380815,2.132811,1576,,
2.1577,Les Corts-Vallespir,41.385284,2.132669,1577,,
2.1578,Pl. del Centre,41.381885,2.136063,1578,,
2.1580,Guillem Tell - Av Príncep d'Astúries,41.402796,2.148996,1580,,
2.1581,Mitre-Saragossa,41.405285,2.144073,1581,,
2.1582,Mitre-Pàdua,41.405824,2.146153,1582,,
2.1583,Major de Sarrià-Dolors Monserdà,41.400865,2.120510,1583,,
2.1584,Major de Sarrià-Nou de Santa Eulàlia,41.402272,2.119247,1584,,
2.1585,Major de Sarrià-General Vives,41.403438,2.117223,1585,,
2.1587,CAP Sarrià,41.401932,2.121444,1587,,
2.1589,Doctor Pi i Molist-Fabra i Puig,41.430771,2.174491,1589,,
2.159,Caracas-Potosí,41.443577,2.202809,159,,
2.1590,Fabra i Puig-Meridiana,41.430261,2.181997,1590,,
2.1591,Fabra i Puig-Arnau d'Oms,41.430324,2.177722,1591,,
2.1592,Fabra i Puig-Arnau d'Oms,41.430338,2.176723,1592,,
2.1594,Pl Karl Marx,41.439395,2.162486,1594,,
2.1595,Centre Esportiu Ciutat Meridiana,41.459461,2.176122,1595,,
2.1597,Jorge Manrique-C E Hispano Francès,41.431433,2.149286,1597,,
2.1599,Via Laietana-Jutjats,41.382821,2.180363,1599,,
2.16,Via Favència-Castor,41.442690,2.170198,16,,
2.160,Badal-Canalejas,41.373489,2.131036,160,,
2.1600,Via Laietana-Pl. Ramon Berenguer,41.385071,2.177390,1600,,
2.1602,Via Laietana-Pl Ramon Berenguer,41.384963,2.177278,1602,,
2.1604,Pg Marítim-Almirall Cervera,41.379075,2.192087,1604,,
2.1605,Almirall Cervera,41.378391,2.190071,1605,,
2.1606,Pg Marítim-Almirall Cervera,41.379165,2.192298,1606,,
2.161,Badal-Casteràs,41.375171,2.130410,161,,
2.1610,Zona Franca-ENASA,41.329827,2.131949,1610,,
2.1611,Av Gran Via-Rambla Marina,41.348273,2.112261,1611,,
2.1612,Av Gran Via-Av Mare de Déu de Bellvitge,41.346167,2.110240,1612,,
2.1613,Rambla Marina-Metro de Bellvitge,41.351620,2.110198,1613,,
2.1614,Carrer número 4-Carrer B,41.329619,2.133333,1614,,
2.1615,Carrer número 4-Carrer D,41.331081,2.128353,1615,,
2.1616,Pg Pujades-Parc de la Ciutadella,41.389982,2.185053,1616,,
2.1617,Carrer núm 4-Mercabarna,41.334345,2.119037,1617,,
2.1618,Carrer número 4-Carrer F,41.332990,2.122905,1618,,
2.1619,Carrer número 4-Carrer E,41.332135,2.125338,1619,,
2.162,Sagrera-Múrcia,41.417652,2.191488,162,,
2.1620,Metro Poble Sec,41.374880,2.159895,1620,,
2.1621,Palamós-Tamariu,41.449404,2.186150,1621,,
2.1622,S'Agaró-Sa Tuna,41.451406,2.187922,1622,,
2.1624,Parc del Turó de la Peira,41.433376,2.163352,1624,,
2.1625,Mercat Mare de Déu de Núria,41.459926,2.172569,1625,,
2.1626,Perafita-Av Rasos de Peguera,41.459700,2.170546,1626,,
2.1629,Pamplona-Av Bogatell,41.393399,2.195673,1629,,
2.163,Rambla Marina-Travessia Industrial,41.352445,2.108490,163,,
2.1630,Badajoz-Doctor Trueta,41.394938,2.200400,1630,,
2.1631,Marina-Ramon Turró,41.390871,2.191899,1631,,
2.1632,Àlaba-Bogatell,41.393125,2.198489,1632,,
2.1633,Jacint Verdaguer-de la TV3,41.373976,2.071460,1633,,
2.1636,Tamarit-Mercat de Sant Antoni,41.379969,2.162654,1636,,
2.1637,Pg Reina Elisenda-Major de Sarrià,41.399806,2.120795,1637,,
2.1638,Zona Franca-Carrer A,41.334949,2.140311,1638,,
2.1639,Zona Franca-SEAT,41.338013,2.142164,1639,,
2.164,Santa Rosalia-Besòs,41.421731,2.146808,164,,
2.1640,Carrer A-SEAT,41.337416,2.141249,1640,,
2.1641,Carrer A-Carrer número 3,41.331041,2.137357,1641,,
2.1642,Carrer A-Carrer número 4,41.329164,2.136191,1642,,
2.1643,Mercabarna-Mercat del Peix,41.334052,2.117334,1643,,
2.1644,Palamós-La Fosca,41.447867,2.185263,1644,,
2.1645,Carrer D-Carrer número 4,41.330110,2.128757,1645,,
2.1646,Carrer D-Carrer número 5,41.327592,2.127203,1646,,
2.1647,Carrer D-Carrer número 6,41.324901,2.125546,1647,,
2.165,València-Villarroel,41.386831,2.155608,165,,
2.1650,Av Doctor Marañón-Av de Xile,41.381439,2.114350,1650,,
2.1652,Riu Llobregat-Riu Ebre,41.316754,2.087585,1652,,
2.1653,Ctra d'Esplugues-Domenech i Muntaner,41.364416,2.075640,1653,,
2.1654,Ctra d'Esplugues-Torras i Bages,41.361171,2.072433,1654,,
2.1655,Av Sant Ildefons-Av República Argentina,41.362768,2.082816,1655,,
2.1656,Av Sant Ildefons-Bruc,41.360490,2.080818,1656,,
2.1657,Av Barcelona-Mare de Déu de la Mercè,41.368507,2.070638,1657,,
2.1658,St Martí de l'Erm-Marquès de Monistrol,41.371411,2.070081,1658,,
2.1659,Ciutat d'Asunción-Tucumán,41.444586,2.199257,1659,,
2.166,Mallorca-Muntaner,41.389512,2.156721,166,,
2.1660,Pl Maragall-Xiprer,41.418880,2.180476,1660,,
2.1661,Rambla Prim-Pallars,41.414336,2.214866,1661,,
2.1663,Av Meridiana-Pl dels Jardins d'Elx,41.423500,2.187079,1663,,
2.1664,Gran Via-Metro Besòs,41.420206,2.209672,1664,,
2.1665,Guipúscoa-Extremadura,41.424692,2.208523,1665,,
2.1666,Bernat Metge-Argentina,41.420188,2.211767,1666,,
2.1667,Guipúscoa-Metro La Pau,41.423363,2.206751,1667,,
2.1669,Carrer número 1-Carrer número 60,41.344949,2.144315,1669,,
2.167,Gran Via-Casanova,41.384250,2.160999,167,,
2.1670,Transports Metropolitans de Barcelona,41.346736,2.142280,1670,,
2.1671,Area Metropolitana de Barcelona,41.346705,2.142219,1671,,
2.168,Diagonal-Francesc Macià,41.393118,2.146355,168,,
2.1690,Riu Llobregat-Riu Túria,41.317100,2.084950,1690,,
2.1691,Riu Llobregat-Av Onze de Setembre,41.317619,2.083213,1691,,
2.1695,Ctra d'Horta,41.438971,2.154218,1695,,
2.1696,Fusters-Ctra Nacional 150,41.464179,2.174811,1696,,
2.1697,Ctra Reial-Bonavista,41.378514,2.078488,1697,,
2.1699,Bernat Metge-Rambla Prim,41.420458,2.211899,1699,,
2.17,Les Torres-Mina de la Ciutat,41.446651,2.171610,17,,
2.170,Provença-Hospital Clínic,41.389573,2.154552,170,,
2.1701,Fusters-Ctra Nacional 150,41.464613,2.175078,1701,,
2.1702,General Mendoza-Santa Rosalia,41.421466,2.141633,1702,,
2.1703,Les Agudes (a Torre Baró-Vallbona),41.461547,2.175902,1703,,
2.1704,Les Agudes-Costabona (a Torre Baró-Vallbona),41.462708,2.177347,1704,,
2.1705,Vallcivera-Pl Roja,41.461181,2.179395,1705,,
2.1706,Av Rasos de Peguera-Pedraforca,41.460493,2.173803,1706,,
2.1707,Les Agudes-Costabona (a Can Cuiàs),41.462681,2.177265,1707,,
2.1708,Les Agudes-Av Rasos de Peguera (a Can Cuiàs),41.461477,2.175881,1708,,
2.1709,Av Meridiana-Ctra de Ribes,41.449895,2.188848,1709,,
2.171,París-Casanova,41.391101,2.149974,171,,
2.1710,Pg de Santa Coloma-Ctra de Ribes,41.445130,2.189791,1710,,
2.1711,Via Favència-Ctra de Ribes,41.447117,2.189923,1711,,
2.1713,Les Corts-Aurora Bertrana,41.377057,2.119821,1713,,
2.1714,Pare Manyanet-Sant Sebastià,41.427701,2.191346,1714,,
2.1715,Av Mossèn Joaquim Castellví-Barcelona,41.487644,2.187772,1715,,
2.1716,Rambla dels Països Catalans-Torras i Bages,41.489388,2.186889,1716,,
2.1717,Rambla dels Països Catalans-Pl Espanya,41.491288,2.185462,1717,,
2.1718,Av Riera de Sant Cugat-Ptge de la Pintura,41.485729,2.181499,1718,,
2.1719,Anselm Clavé-Pl Espanya,41.492024,2.183483,1719,,
2.172,Av. Pedralbes-Bosch i Gimpera,41.392201,2.116336,172,,
2.1720,Av Indústria-Av Camp Roig,41.380490,2.066909,1720,,
2.1721,Av Indústria-Ramón i Cajal,41.381787,2.068691,1721,,
2.1722,Av Lluís Companys-Av Generalitat,41.375430,2.056903,1722,,
2.1723,Av Lluís Companys-Rubió i Tudurí,41.377446,2.060231,1723,,
2.1724,Av Lluís Companys-Pla del Vent,41.378530,2.062027,1724,,
2.1725,Complex Esportiu Hospitalet Nord,41.376490,2.101576,1725,,
2.1726,Laureà Miró-Molí,41.376911,2.095684,1726,,
2.1728,Av Maresme-Av de la Fama,41.349690,2.087016,1728,,
2.1729,Pl Espanya-Sant Tomàs,41.491228,2.183832,1729,,
2.173,Villarroel-Aragó,41.385291,2.156551,173,,
2.1730,Mercat Ciutat Meridiana,41.462304,2.178201,1730,,
2.1731,Les Agudes-Can Cuiàs,41.463726,2.175517,1731,,
2.1732,Les Agudes 31,41.463555,2.178125,1732,,
2.1733,Les Agudes 118-124,41.461211,2.174072,1733,,
2.1736,Estació TIR-Pg de la Zona Franca,41.346925,2.148719,1736,,
2.1737,Av Barcelona-Mare de Déu de Montserrat,41.367979,2.064016,1737,,
2.1739,Fructuós Gelabert-Jacint Verdaguer,41.372760,2.067297,1739,,
2.174,Pau Claris-Aragó,41.392912,2.166772,174,,
2.1741,Cotxeres TB Zona Franca,41.329870,2.137157,1741,,
2.1742,Mitre-Balmes,41.404254,2.140622,1742,,
2.1743,Ctra Cementiri de Collserola-Coll de La Ventosa,41.449921,2.158937,1743,,
2.1744,Tibidabo-Mare de Déu de Montserrat,41.427957,2.211515,1744,,
2.1745,Via Augusta-Margenat,41.402008,2.120440,1745,,
2.1746,Av dels Països Catalans-Somatents,41.377829,2.091891,1746,,
2.1747,Av dels Països Catalans-Direcció Gral d'Esports,41.379655,2.094964,1747,,
2.1749,Ctra Reial-Rambla Modolell,41.378569,2.076869,1749,,
2.175,Balmes-Aragó,41.389380,2.162400,175,,
2.1750,Ctra Reial-de l'Estalvi,41.378268,2.079496,1750,,
2.1751,Laureà Miró-Anton Fortuny,41.377957,2.082374,1751,,
2.1752,Av.Madrid-Carles III,41.378713,2.127706,1752,,
2.1753,Av Madrid-Benavent,41.377393,2.125406,1753,,
2.1754,Av Madrid-Arizala,41.376134,2.123659,1754,,
2.1755,Sants-Munné,41.375605,2.122873,1755,,
2.1756,Metro Badal,41.375598,2.128907,1756,,
2.1758,Coll de La Ventosa,41.450797,2.158914,1758,,
2.1759,Ctra del Cementiri de Collserola-Recinte Hebreu,41.459721,2.155028,1759,,
2.176,Rocafort-Aragó,41.381046,2.150887,176,,
2.1760,Ctra Cementiri de Collserola-Ca.Vall de St Iscle,41.458991,2.154819,1760,,
2.1761,Av Alzinar-Transversal,41.461630,2.182768,1761,,
2.1764,Av Icària-Joan Miró,41.390328,2.195773,1764,,
2.1765,Av Meridiana-Peníscola,41.453439,2.189160,1765,,
2.1766,Metro Badal,41.375499,2.127962,1766,,
2.1767,Pl de Sants,41.375489,2.134270,1767,,
2.1768,Sants-Rambla del Brasil,41.375555,2.131029,1768,,
2.1769,Badal-Constitució,41.369376,2.133047,1769,,
2.1771,Sant Antoni - Pl de Sants,41.376062,2.136333,1771,,
2.1775,Av Tibidabo-Ronda de Dalt,41.414289,2.134144,1775,,
2.1776,Pl. Alfonso Comín-Isaac Newton,41.415150,2.136141,1776,,
2.1777,Major de Can Caralleu-Ronda de Dalt,41.401281,2.113442,1777,,
2.1778,Av Meridiana-S'Agaró,41.448149,2.187808,1778,,
2.1779,Ctra d'Horta-Ronda de Dalt,41.439599,2.154360,1779,,
2.178,Bruc-Aragó,41.394640,2.169006,178,,
2.1780,Lima-Caracas,41.439228,2.204478,1780,,
2.1781,Estació TIR-Ronda Litoral,41.347015,2.148776,1781,,
2.1785,Costa Pacheco 21,41.428037,2.131294,1785,,
2.1787,Trelawny-Pg. Marítim,41.385008,2.195475,1787,,
2.1788,Trelawny-Av. Litoral,41.385672,2.194599,1788,,
2.1789,Av Granvia-Hospital Prínceps d'Espanya,41.343168,2.105187,1789,,
2.179,Sants-Gayarre,41.375257,2.139662,179,,
2.1791,Berenguer de Palou-Baixada de La Sagrera,41.420899,2.191320,1791,,
2.1792,Sagrera-Pl del General Moragues,41.418211,2.191309,1792,,
2.18,Antonio Machado-E M de Natació,41.444295,2.170505,18,,
2.180,Creu Coberta-Pl. Espanya,41.375222,2.147537,180,,
2.1800,Pl de l'Agrupació número 9,41.457522,2.163020,1800,,
2.1801,Agrupació número 16·17,41.463374,2.159267,1801,,
2.1802,Funicular de Vallvidrera-Pl Pep Ventura,41.414524,2.105310,1802,,
2.1803,Funicular de Vallvidrera,41.414226,2.105831,1803,,
2.1804,Camí Vell,41.408909,2.101650,1804,,
2.1805,Pl La Masia,41.480702,2.165273,1805,,
2.1806,Ctra del Cementiri de Collserola-Ramon Llull,41.473323,2.165004,1806,,
2.1808,Sales de Vetlla-Capelles,41.470330,2.156882,1808,,
2.1809,Ramon Llull-Ctra de Montcada,41.474253,2.166233,1809,,
2.181,Metro Hostafrancs,41.375281,2.144563,181,,
2.1810,Cruïlla de Carreteras,41.418296,2.116550,1810,,
2.1811,Ctra de Vallvidrera-Accés Escola Judicial,41.416668,2.112264,1811,,
2.1812,Parc de la Budellera,41.415931,2.110116,1812,,
2.1814,Mont d'Orsà-Romanimar,41.411034,2.102903,1814,,
2.1815,Camí Santa Creu d'Olorda,41.409021,2.101650,1815,,
2.1816,Mont d'Orsà,41.411290,2.103152,1816,,
2.1817,Pl de Vallvidrera-Alberes,41.412984,2.104667,1817,,
2.1818,Font del Mont-Parc de la Budellera,41.415877,2.110201,1818,,
2.1819,Accés Escola Judicial,41.416693,2.112606,1819,,
2.182,Pg de Gràcia-Consell de Cent,41.391615,2.165430,182,,
2.1820,Ctra de Vallvidrera-Cruïlla de Carreteres,41.417770,2.116702,1820,,
2.1821,Mentora Alsina,41.421733,2.121110,1821,,
2.1825,Cardenal Tedeschini-Pl del Congrés Eucarístic,41.426185,2.181523,1825,,
2.1826,Pl Dante,41.368640,2.165212,1826,,
2.1827,Costa Pacheco-Av Elies Pagès,41.428356,2.132452,1827,,
2.1828,Av Elies Pagès-Natzaret,41.427466,2.134806,1828,,
2.1829,Av Indústria-Salvador Espriu,41.382624,2.069893,1829,,
2.183,Gran Via-Ildefons Cerdà,41.365781,2.136445,183,,
2.1832,Tiana-Quito,41.447169,2.201088,1832,,
2.1834,Pl Congrés,41.425833,2.180585,1834,,
2.1835,Olesa-Campo Florido,41.421444,2.183588,1835,,
2.1841,Consell de Cent-Rector Triadó,41.376557,2.145704,1841,,
2.1842,Moianès-Creu Coberta,41.374916,2.142501,1842,,
2.1843,Moianès-Ctra de la Bordeta,41.373211,2.142430,1843,,
2.1848,Constitució-Riera de Tena,41.369524,2.134587,1848,,
2.1849,Olzinelles-Constitució,41.370357,2.137710,1849,,
2.185,Av. Granvia-Bloc I. Cerdà,41.361782,2.131960,185,,
2.1850,Olzinelles-Noguera Pallaresa,41.371937,2.137049,1850,,
2.1851,Pl Bonet i Muixí,41.374228,2.136371,1851,,
2.1852,Tajo-Ptge Vila i Rosell,41.429594,2.160350,1852,,
2.1855,Lisboa-Alarcón,41.427572,2.153826,1855,,
2.1856,Plàtans-Pl de la Clota,41.426335,2.150388,1856,,
2.1857,Granja Vella-Basses d'Horta,41.427134,2.144904,1857,,
2.1858,Granja Vella-Pg de la Vall d'Hebron,41.427150,2.144050,1858,,
2.1859,Coll i Alentorn-Av Martí i Codolar,41.424512,2.147835,1859,,
2.1860,Pantà de Tremp-Pl de la Clota,41.425689,2.149997,1860,,
2.1861,Lisboa-Serrallonga,41.427457,2.153901,1861,,
2.1862,Av Joan XXIII-Maternitat,41.384196,2.122772,1862,,
2.1863,Sor Eulàlia d'Anzizu-Gran Capità,41.388114,2.109948,1863,,
2.1864,Sor Eulàlia d'Anzizu-Dulcet,41.389938,2.112436,1864,,
2.1865,Miret i Sans-Av d'Esplugues,41.391528,2.110861,1865,,
2.1868,Joan d'Alos-Av Pearson,41.391457,2.103830,1868,,
2.1869,Torrent de les Roses-Mare de Déu de la Merçé,41.389236,2.103567,1869,,
2.187,Escorial-Clínica Nostra Senyora del Remei,41.409804,2.159031,187,,
2.1870,Pl Coll de Finestrelles,41.389022,2.104255,1870,,
2.1872,Josep Serrano-Baró Sant Lluís,41.417233,2.162583,1872,,
2.1873,Jaume Puigvert - Josep Serrano,41.416523,2.160860,1873,,
2.1874,Av Can Baró-Bismarck,41.415217,2.161152,1874,,
2.1879,Diagonal-Ciutat de Granada,41.404189,2.191262,1879,,
2.1880,Diagonal-Roc Boronat,41.404571,2.191227,1880,,
2.1881,Parc de Cervantes,41.385277,2.104711,1881,,
2.1882,Doctor Ferran,41.390656,2.123588,1882,,
2.1883,Manila-Doctor Ferran,41.389806,2.125704,1883,,
2.1885,Ronda Guinardó-Sardenya,41.412174,2.162659,1885,,
2.1886,Fabra i Puig,41.429359,2.183873,1886,,
2.1887,Metro Maragall,41.424755,2.177418,1887,,
2.189,Via Favència-Trinitat Nova,41.446825,2.184214,189,,
2.1890,Diagonal-Josep Pla,41.410003,2.212899,1890,,
2.1891,Diagonal-Selva de Mar,41.409165,2.209545,1891,,
2.1892,Diagonal-Fluvià,41.407908,2.204555,1892,,
2.1893,Diagonal-Parc del Poblenou,41.406357,2.198312,1893,,
2.1894,Diagonal-Rambla del Poblenou,41.405444,2.194704,1894,,
2.1896,Diagonal-Pere IV,41.406292,2.199611,1896,,
2.1897,Diagonal-Bac de Roda,41.407592,2.204838,1897,,
2.1898,Diagonal-Metro Selva de Mar,41.408882,2.209974,1898,,
2.1899,Diagonal-Agricultura,41.409650,2.213097,1899,,
2.1900,Antonio Machado-Barri de Canyelles,41.444218,2.170234,1900,,
2.1901,Metro Fabra i Puig,41.431678,2.183250,1901,,
2.1903,Ctra Reial-Comerç,41.379573,2.066913,1903,,
2.1904,Pl d'Eusebi Güell,41.390168,2.114287,1904,,
2.1905,Balmes-Pelai,41.386174,2.166637,1905,,
2.1906,Arnau d'Oms-La Jota,41.429313,2.177416,1906,,
2.1907,Ramon Albó-Alexandre Galí,41.426650,2.177281,1907,,
2.1908,Av Meridiana-Navas de Tolosa,41.414468,2.186738,1908,,
2.191,Bac de Roda-Cristóbal de Moura,41.408152,2.203269,191,,
2.1910,Via Favència-Pablo Iglesias,41.446364,2.182770,1910,,
2.1911,Ctra de Vallvidrera al Tibidabo,41.424128,2.119182,1911,,
2.1912,Mare de Déu de Port-Foneria,41.360594,2.140330,1912,,
2.1913,Mare de Déu de Port-Alts Forns,41.359872,2.141606,1913,,
2.1914,Foc-Mare de Déu de Port,41.358417,2.144037,1914,,
2.1915,Ferrocarrils Catalans-Foc,41.359464,2.144480,1915,,
2.1916,Ferrocarrils Catalans-Alts Forns,41.360311,2.143043,1916,,
2.1917,Ferrocarrils Catalans-Aviador Duran,41.361352,2.141306,1917,,
2.1919,Av Baix Llobregat-St Martí de l'Erm,41.373772,2.073974,1919,,
2.1920,Josep Trueta-Sant Martí de L'Erm,41.372820,2.071313,1920,,
2.1921,Sant Martí de L'Erm-Antonio Gaudí,41.371721,2.070600,1921,,
2.1922,Av Barcelona-Extremadura,41.369312,2.073349,1922,,
2.1925,Piferrer-Deià,41.432115,2.177744,1925,,
2.1926,Piferrer-Pintor Alsamora,41.434481,2.179700,1926,,
2.1927,Av Rio de Janeiro-Pg Valldaura,41.438930,2.181590,1927,,
2.1928,Pl Àngel Pestaña,41.441010,2.179245,1928,,
2.193,Rambla Prim-Marroc,41.416420,2.212094,193,,
2.1930,Av Rio de Janeiro-Baltasar Gracián,41.440098,2.182542,1930,,
2.1932,Pg Andreu Nin-Parc Esportiu de Can Dragó,41.434251,2.181472,1932,,
2.1933,Pg Ciutat de Mallorca-Av Rio de Janeiro,41.432491,2.180522,1933,,
2.1935,Escultor Ordóñez-Pl de Sóller,41.433608,2.174932,1935,,
2.1936,Sor Eulàlia d'Anzizu-Miret i Sans,41.389955,2.112265,1936,,
2.1937,Metro Maragall,41.424602,2.176973,1937,,
2.1938,Mitre-Doctor Fleming,41.394848,2.133718,1938,,
2.1939,Mitre-Ganduxer,41.398898,2.133885,1939,,
2.1940,Mitre-Ganduxer,41.398752,2.133459,1940,,
2.1941,Mitre-Doctor Fleming,41.394782,2.133414,1941,,
2.1943,Virgili-Pl de Montserrat Roca i Baltà,41.431303,2.193420,1943,,
2.1944,Pl de l'Abat Escarré,41.430178,2.191416,1944,,
2.195,Can Caralleu,41.401969,2.111630,195,,
2.1950,La Fosca-Chafarinas,41.448162,2.183251,1950,,
2.1954,Segura-Anoia,41.362561,2.140537,1954,,
2.1955,Segura-Foneria,41.362895,2.141768,1955,,
2.1956,Av Sarrià-Doctor Fleming,41.391741,2.135872,1956,,
2.1958,Borbó-Costa i Cuxart,41.428293,2.174566,1958,,
2.1959,Pl de les Roquetes,41.448399,2.176179,1959,,
2.196,General Vives-Pg de Santa Eulàlia,41.403386,2.116248,196,,
2.1960,Parc del Pla de Fornells,41.448503,2.176362,1960,,
2.1961,Fabra i Puig-Pg. Urrutia,41.436643,2.164549,1961,,
2.1963,Fabra i Puig-Pg. Urrutia,41.436819,2.164489,1963,,
2.1970,Rambla del Brasil-Roger,41.377266,2.129587,1970,,
2.1971,Carrer número 1-Carrer número 62,41.345583,2.142514,1971,,
2.1973,Radi-Ctra del Prat,41.362647,2.134807,1973,,
2.1975,Av Pablo Picasso-Marià Fortuny,41.354973,2.087146,1975,,
2.1976,Badal-Av. Carrilet,41.366569,2.134046,1976,,
2.198,Camí de Can Caralleu-Ronda de Dalt,41.401837,2.114363,198,,
2.1980,Estació Av del Carrilet,41.358299,2.103502,1980,,
2.1982,Av Paral-lel,41.374825,2.152836,1982,,
2.1983,Carrer A-Carrer número 2,41.342374,2.144295,1983,,
2.1984,Escorial-Sant Lluís,41.406345,2.162298,1984,,
2.1985,Sant Salvador-Massens,41.408397,2.155967,1985,,
2.1986,Sant Salvador-Verdi,41.407008,2.153413,1986,,
2.1987,Sargelet-Maignon,41.408954,2.150858,1987,,
2.1988,Valldoreix-Verdi,41.410068,2.151494,1988,,
2.1989,Av del Coll del Portell-Sostres,41.410661,2.151408,1989,,
2.199,Pg. Zona Franca-Cisell,41.354396,2.142976,199,,
2.1990,Sostres-Baixada de la Glòria,41.412239,2.149738,1990,,
2.1991,Arnold Schönberg-Av del Coll del Portell,41.412930,2.149311,1991,,
2.1992,Av del Coll del Portell-Baixada de la Glòria,41.412099,2.150325,1992,,
2.1993,Av del Coll del Portell-Rambla de Mercedes,41.411183,2.151865,1993,,
2.1994,Albigesos-Verdi,41.410535,2.150596,1994,,
2.1995,Verdi-Valldoreix,41.409268,2.151549,1995,,
2.1996,Pl Rovira i Trias,41.407585,2.158781,1996,,
2.1997,Torrent de les Flors-Cardener,41.409702,2.156679,1997,,
2.1998,Ctra Cementiri de Collserola-Residència Joan XXI,41.465157,2.156006,1998,,
2.1999,Residència Joan XXIII,41.464957,2.155989,1999,,
2.2,Av. Icària-Àlaba,41.393104,2.198985,2,,
2.20,Antonio Machado-Artesania,41.444385,2.170821,20,,
2.200,Pg. Zona Franca-Motors,41.351695,2.145339,200,,
2.2004,Oblit-direcció Font d'en Fargas,41.419321,2.177609,2004,,
2.2005,Rambla Volart-Flors de Maig,41.417645,2.174358,2005,,
2.2006,La Bisbal - Av. Mare de Déu de Montserrat,41.418186,2.172766,2006,,
2.2007,Aguilar-Alt de Pedrell,41.425489,2.169482,2007,,
2.2008,Aguilar-Montserrat de Casanovas,41.423092,2.169784,2008,,
2.2009,Garriga i Roca-Sales Ferrer,41.421174,2.169872,2009,,
2.2010,Garriga i Roca-Ercilla,41.419783,2.170683,2010,,
2.2012,Rambla de la Muntanya-Vinyals,41.420136,2.175347,2012,,
2.2019,General Vives-Via Augusta,41.404920,2.117631,2019,,
2.202,Via Augusta-Calvet,41.397720,2.139095,202,,
2.2020,Torrent de les Flors-Sant Lluís,41.406152,2.160202,2020,,
2.2021,Pl Joanic,41.404928,2.162480,2021,,
2.2022,Granja Vella-Av Martí i Codolar,41.426859,2.147947,2022,,
2.2023,Calderón de la Barca-Ctra del Carmel,41.419015,2.157319,2023,,
2.2024,Calderón de la Barca-Alcalde de Zalamea,41.420629,2.156840,2024,,
2.2025,Segimón-L'Alguer,41.420952,2.155096,2025,,
2.2026,Fastenrath-L'Hortal,41.421921,2.152672,2026,,
2.2028,Camí dels Àngels,41.421661,2.148969,2028,,
2.2029,Parc de La Creueta del Coll,41.421295,2.146272,2029,,
2.203,Av Indústria-Severo Ochoa,41.384558,2.072482,203,,
2.2034,Metro Penitents,41.417448,2.140595,2034,,
2.2037,Sigüenza-La Murtra,41.423260,2.152613,2037,,
2.2038,Sigüenza-Ramon Rocafull,41.424123,2.154142,2038,,
2.2039,Mercat del Carmel,41.423571,2.155356,2039,,
2.204,Floridablanca-Av. Mistral,41.376577,2.156056,204,,
2.2040,Conca de Tremp-Agudells,41.422319,2.156492,2040,,
2.2041,Conca de Tremp-Arbós,41.421284,2.157319,2041,,
2.2042,Conca de Tremp-Queixans,41.420023,2.157510,2042,,
2.2043,Manso-Comte Borrell,41.377400,2.161458,2043,,
2.2044,Riera Alta-Nou de Dulce,41.380340,2.163744,2044,,
2.2045,Riera Alta-Erasme de Janer,41.380478,2.166460,2045,,
2.2046,Rambla del Raval-Aurora,41.379306,2.168224,2046,,
2.2047,Rambla del Raval-Sant Pau,41.377630,2.170218,2047,,
2.2048,Av Drassanes-Arc del Teatre,41.376628,2.173082,2048,,
2.2049,Av Drassanes-Pl Portal de la Pau,41.376008,2.176738,2049,,
2.205,Calàbria-Floridablanca,41.378209,2.157083,205,,
2.2051,Metro Drassanes,41.376420,2.174801,2051,,
2.2052,Av Drassanes-Nou de la Rambla,41.376829,2.172727,2052,,
2.2053,Rambla del Raval-Sant Josep Oriol,41.378008,2.170526,2053,,
2.2054,Rambla del Raval-Hospital,41.379461,2.168798,2054,,
2.2055,Pl Joan Amades,41.381394,2.168724,2055,,
2.2056,Pl dels Àngels,41.382657,2.167890,2056,,
2.2057,Montalegre-Valdonzella,41.384002,2.166783,2057,,
2.2059,Mercat de Sant Antoni,41.377342,2.161382,2059,,
2.2061,Mare de Déu del Remei-Grases,41.373013,2.156881,2061,,
2.2063,Elkano-Blasco de Garay,41.373174,2.162911,2063,,
2.2064,Elkano-Poeta Cabanyes,41.372580,2.164823,2064,,
2.2066,Vila i Vilà-Lafont,41.373897,2.169609,2066,,
2.2067,Vila i Vilà-Puigxuriguer,41.372925,2.172907,2067,,
2.2068,Piquer-Cabanes,41.372842,2.170582,2068,,
2.2069,Nou de la Rambla-Av Paral·lel,41.374419,2.169511,2069,,
2.207,Mallorca-Viladomat,41.384497,2.150058,207,,
2.2071,Pg de Solé i Pla,41.427118,2.088599,2071,,
2.2072,Pl Major del Rectoret,41.427377,2.092210,2072,,
2.2074,Torrent del Rovelló-Camí del Pantá,41.419371,2.096908,2074,,
2.2075,Torrent del Rovelló-Camí Baix del Mas Sauró,41.418243,2.094446,2075,,
2.2076,Camí Alt del Mas Sauró-Font Mosen Cinto Verdaguer,41.417827,2.094892,2076,,
2.2077,Camí Alt del Mas Sauró-Camí del Ciureny,41.417870,2.096494,2077,,
2.2078,Camí del Mas Sauró,41.417083,2.096513,2078,,
2.2079,Can Sauró,41.415907,2.095041,2079,,
2.208,París-Calàbria,41.386985,2.144499,208,,
2.2080,Mas Sauró-Camí del Pebràs,41.415668,2.092830,2080,,
2.2081,"Can Sauró,direcció Mas Guimbau",41.415924,2.095180,2081,,
2.2082,"Camí del Mas Sauró,direcció Mas Guimbau",41.417056,2.096346,2082,,
2.2083,"Camí del Ciureny,direcció Mas Guimbau",41.417899,2.096575,2083,,
2.2084,"Font Mossen Cinto Verdaguer,direcció Mas Guimbau",41.417892,2.095145,2084,,
2.2085,"Camí Baix del Mas Sauró,direcció Mas Guimbau",41.418207,2.094499,2085,,
2.2086,"Torrent del Rovelló,direcció Mas Guimbau",41.419215,2.096832,2086,,
2.2087,FGC Les Planes,41.427222,2.091477,2087,,
2.2088,Camí dels Verns-Camí del Mas Guimbau,41.426154,2.089765,2088,,
2.2089,Pg.Solé i Pla - Ctra.Vallvidrera,41.427727,2.089790,2089,,
2.209,Paral·lel-Marquès de Campo Sagrado,41.375096,2.163720,209,,
2.2090,Mas Sauró,41.415611,2.092898,2090,,
2.2091,"Can Sauró,direcció Vallvidrera",41.415953,2.095213,2091,,
2.2092,"Camí del Mas Sauró,direcció Vallvidrera",41.417063,2.096393,2092,,
2.2093,"Camí del Ciureny,direcció Vallvidrera",41.417916,2.096507,2093,,
2.2094,"Font Mossen Cinto Verdaguer,direcció Vallvidrera",41.417889,2.095079,2094,,
2.2095,"Camí Baix del Mas Sauró,direcció Vallvidrera",41.418342,2.094659,2095,,
2.2096,"Torrent del Rovelló,direcció Vallvidrera",41.419228,2.096853,2096,,
2.2097,Camí del Pantà,41.418447,2.097887,2097,,
2.2098,FGC Baixador Vallvidrera,41.419915,2.096903,2098,,
2.2099,Camí del Sanatori-Ctra de Vallvidrera,41.421047,2.096588,2099,,
2.21,Palau Reial,41.385593,2.116137,21,,
2.210,Manso-Viladomat,41.376597,2.160394,210,,
2.2100,Major del Rectoret-Parc Municipal de Vallvidrera,41.423482,2.094752,2100,,
2.2101,Major del Rectoret-Amarant,41.424529,2.094947,2101,,
2.2102,Bohemis-Savina,41.425335,2.097134,2102,,
2.2103,Savina-Pg del Magraner,41.424144,2.096608,2103,,
2.2104,Lilà-Boix,41.425686,2.099803,2104,,
2.2105,Lilà-Presseguer,41.428243,2.100920,2105,,
2.2108,Major del Rectoret-Costa del Bruc,41.429895,2.094892,2108,,
2.2109,"Pl Coll de la Creu d'en Blau,direcció El Rectoret",41.433646,2.094153,2109,,
2.211,Via Laietana-Comtal,41.387092,2.174463,211,,
2.2110,Major del Rectoret-Marco Polo,41.429643,2.094852,2110,,
2.2111,Major del Rectoret-Parsifal,41.426415,2.093843,2111,,
2.2112,Margalló-Major del Rectoret,41.426130,2.096158,2112,,
2.2113,Av del Rectoret-Baladre,41.425925,2.093040,2113,,
2.2114,Av del Rectoret-Vesc,41.426127,2.092856,2114,,
2.2115,Major del Rectoret-Margalló,41.426166,2.095857,2115,,
2.2116,Major del Rectoret-Lohengrin,41.426541,2.093950,2116,,
2.2117,"Pl Coll de la Creu d'en Blau,direcció Vallvidrera",41.433653,2.094130,2117,,
2.212,Indústria-Independència,41.412607,2.178475,212,,
2.2121,Lilà-Geranis,41.428160,2.100831,2121,,
2.2122,Lilà-Poncelles,41.425636,2.099660,2122,,
2.2123,Savina-Poncelles,41.424173,2.096498,2123,,
2.2124,Bohemis-Amarant,41.425420,2.097344,2124,,
2.2125,Major del Rectoret,41.424586,2.094904,2125,,
2.2126,Parc Municipal de Vallvidrera,41.423322,2.094755,2126,,
2.2127,Camí del Sanatori- FGC Baixador de Vallvidrera,41.420860,2.096495,2127,,
2.2128,Capità Arenas-Manuel de Falla,41.393027,2.124832,2128,,
2.213,Pg de Sant Joan-Còrsega,41.401504,2.167162,213,,
2.2130,Pg Maragall-Petrarca,41.428430,2.163332,2130,,
2.2131,Rambla Marina-Av del Carrilet,41.357405,2.103001,2131,,
2.2133,ZAL,41.322368,2.136336,2133,,
2.2134,Llull-Jardins Gandhi,41.404422,2.206746,2134,,
2.2135,Carrer número 3-Carrer C,41.334112,2.135828,2135,,
2.2136,Carrer número 3-Carrer F,41.337347,2.127201,2136,,
2.2137,Rambla Marina-Mercat de Bellvitge,41.350946,2.111270,2137,,
2.2138,IES Ferran Tallada,41.420811,2.161803,2138,,
2.2139,Garcilaso-Juan de Garay,41.422868,2.186345,2139,,
2.214,Casanova-Hospital Clínic,41.390359,2.152694,214,,
2.2141,Turó de La Rovira,41.419693,2.159524,2141,,
2.2142,Gran Vista,41.419972,2.159954,2142,,
2.2143,Ctra de Vallvidrera-El Castanyer,41.425366,2.121348,2143,,
2.2146,Pl de Mourenx,41.463421,2.168564,2146,,
2.2147,Camèlies-Circumval·lació,41.461937,2.170552,2147,,
2.2148,Circumval·lació-Camèlies,41.461969,2.171958,2148,,
2.2149,Pl Tibidabo,41.421513,2.118827,2149,,
2.215,Viladomat-París,41.387721,2.146539,215,,
2.2151,Pg. Taulat-Provençals,41.404850,2.213200,2151,,
2.2154,Jericó-Pg de la Vall d'Hebron,41.420794,2.139496,2154,,
2.2155,Jericó-Romeu,41.421828,2.139023,2155,,
2.2156,Ctra de Sant Cugat-Samaria,41.421920,2.138376,2156,,
2.2157,Ctra de Sant Cugat-Navata,41.420621,2.138529,2157,,
2.2158,Ctra. de Sant Cugat - Gutenberg (c),41.418496,2.138586,2158,,
2.216,Padilla-Rosselló,41.407334,2.175125,216,,
2.2162,Riera d'Horta-Arnau d'Oms,41.428176,2.177687,2162,,
2.217,Josep Tarradellas-Rosselló,41.382888,2.142701,217,,
2.2178,Tajo-Santes Creus,41.429995,2.162399,2178,,
2.218,Torrent de l'Olla-Penedès,41.400915,2.158727,218,,
2.2180,Ctra del Prat-Energia,41.360610,2.134133,2180,,
2.2184,Botànica-Salvador Espriu,41.349484,2.126134,2184,,
2.2185,Botànica-Miguel Hernández,41.349307,2.126308,2185,,
2.2186,Botànica-Primer de Maig,41.346613,2.120668,2186,,
2.2187,Botànica-Motors,41.346233,2.120464,2187,,
2.2188,Motors-Botànica,41.345491,2.116843,2188,,
2.2189,Motors-Av Granvia,41.345145,2.116559,2189,,
2.219,Torrent de l'Olla-Còrsega,41.398688,2.160995,219,,
2.2190,Av Amèrica-Av Granvia,41.349880,2.114470,2190,,
2.2194,Francesc Alegre-Av Mare de Déu de Montserrat,41.415722,2.167093,2194,,
2.2195,Budapest-Gènova,41.418323,2.168095,2195,,
2.2196,Telègraf-Doctor Cadevall,41.418511,2.169092,2196,,
2.2197,Francesc Alegre,41.416499,2.166188,2197,,
2.2198,França-Polonia,41.415241,2.163583,2198,,
2.2199,"Av del Coll del Portell, 74",41.411466,2.151489,2199,,
2.22,Av República Argentina-Vallcarca,41.411365,2.143973,22,,
2.220,Independència-Freser,41.410809,2.179503,220,,
2.2200,Pg Vall d'Hebron-Anna Piferrer,41.417831,2.139136,2200,,
2.2203,Penedès-Priorat,41.360357,2.060456,2203,,
2.2209,Pl de Vallvidrera,41.413052,2.104398,2209,,
2.221,Balmes-Rosselló,41.393560,2.156883,221,,
2.2210,Camí Alt del Mas Sauró,41.416477,2.096324,2210,,
2.2211,"Cami Alt del Mas Sauró,direcció Vallvidrera",41.416437,2.096388,2211,,
2.2212,"Camí Alt de Mas Sauró,direcció Mas Guimbau",41.416418,2.096345,2212,,
2.2213,Camí del Mas Guimbau-Gatosa,41.425529,2.090086,2213,,
2.2214,Camí del Mas Guimbau-Gespa,41.424011,2.090633,2214,,
2.2215,Gespa-la Gatosa,41.424583,2.089628,2215,,
2.2216,Escala de la Gatosa,41.423836,2.089776,2216,,
2.2217,Pg de la Vimetera,41.423591,2.089268,2217,,
2.2218,Pg de la Vimetera-Pg del Pi Forcat,41.423281,2.087371,2218,,
2.2219,Pg del Pi Forcat-Pg d'Anna Rúbies,41.422651,2.087365,2219,,
2.222,Aribau-Còrsega,41.392249,2.154319,222,,
2.2220,Pg de la Vimetera - Escala de la Gatosa,41.423508,2.089240,2220,,
2.2221,Gespa-Pg de la Vimetera,41.423868,2.089835,2221,,
2.2222,Gespa,41.424551,2.089691,2222,,
2.2223,Camí del Mas Guimbau,41.423989,2.090685,2223,,
2.2224,Camí del Mas Guimbau-Castellví,41.425572,2.090063,2224,,
2.2225,Santuari de la Salut,41.426088,2.089808,2225,,
2.2227,Lisboa-Ptge de Tossa,41.429031,2.157276,2227,,
2.2228,"Ciutat d'Asunción-""La Maquinista""",41.440210,2.200091,2228,,
2.2230,Sant Ramon de Penyafort-Ferrer i Bassa,41.417511,2.218023,2230,,
2.2231,Pedrell-Rambla del Carmel,41.423101,2.158646,2231,,
2.2232,Pl de l'Estatut,41.429787,2.155892,2232,,
2.2233,Rambla del Carmel-Llobregós,41.424671,2.157770,2233,,
2.2234,Llobregós-Pg Maragall,41.427766,2.163267,2234,,
2.2235,Llobregós-Torrent del Carmel,41.426517,2.160296,2235,,
2.2239,Pg de Valldaura-Canigó,41.437463,2.155959,2239,,
2.224,Dos de Maig-Indústria,41.410830,2.176939,224,,
2.2241,Pg de Valldaura-Av Estatut de Catalunya,41.436536,2.154003,2241,,
2.2243,Moll de Barcelona,41.372422,2.179764,2243,,
2.2246,Parc Logístic,41.340593,2.124734,2246,,
2.2247,Rambla Josep M Jujol-Riera d'en Nofre,41.367458,2.051473,2247,,
2.2248,Av Barcelona-Rius i Taulet,41.366745,2.060741,2248,,
2.2249,Carrer número 2-Carrer número 62,41.343942,2.137891,2249,,
2.2250,Carrer número 2,41.343816,2.137981,2250,,
2.2251,"Parc Logístic,anada",41.343002,2.131018,2251,,
2.2252,"Parc Logístic,tornada",41.342760,2.130877,2252,,
2.2254,Av Can Corts-Merçè Rodoreda,41.361335,2.065125,2254,,
2.2255,Segura-Escales del Polvorí,41.363737,2.140599,2255,,
2.2256,Segura-Guadalquivir,41.363854,2.140598,2256,,
2.2259,Diagonal-Llull,41.410605,2.215477,2259,,
2.226,Pau Claris-Gran Via,41.390946,2.169374,226,,
2.2260,Metro Canyelles,41.441654,2.166008,2260,,
2.2261,Via Favència-Pl Karl Marx,41.440732,2.163441,2261,,
2.2262,Diagonal-Rambla del Poblenou,41.405229,2.195405,2262,,
2.2264,Pg. Taulat-Provençals,41.404938,2.212377,2264,,
2.2265,Pg. Taulat-Diagonal Mar,41.406995,2.215191,2265,,
2.2266,Pg. Taulat-Diagonal Mar,41.406876,2.215420,2266,,
2.2268,Llull-Diagonal Mar,41.409148,2.213034,2268,,
2.2269,Via Favència-Barri Canyelles,41.442965,2.169598,2269,,
2.227,Marina-Ausiàs Marc,41.397652,2.183325,227,,
2.2270,Numància-Av. Roma,41.381212,2.141343,2270,,
2.2271,Av Barcelona-Bon Viatge,41.364757,2.058728,2271,,
2.2273,Rambla Josep M Jujol-Montjuïc,41.362295,2.056885,2273,,
2.2274,Rambla Josep M Jujol-Baltasar d'Espanya,41.364388,2.054345,2274,,
2.2275,Major-Pl Constitució,41.366870,2.054931,2275,,
2.2276,Major-Montjuïc,41.364787,2.057074,2276,,
2.2279,Pg Reina Elisenda-Av JV Foix,41.398388,2.118540,2279,,
2.228,Bruc-Gran Via,41.391810,2.172762,228,,
2.2281,Av de Vallbona-CAP Ctat Meridiana,41.460930,2.180708,2281,,
2.2282,Av de Vallbona,41.458277,2.184079,2282,,
2.2287,Via Augusta-Doctor Roux,41.397839,2.131274,2287,,
2.2288,Via Augusta-Alt de Gironella,41.397848,2.134132,2288,,
2.2289,Pujades-Provençals,41.407749,2.208708,2289,,
2.2293,Sardenya-Pg. Pujades,41.391813,2.188536,2293,,
2.2294,Ramon Trias Fargas-Doctor Trueta,41.390161,2.190742,2294,,
2.2295,Icària-Parc Carles I,41.388387,2.193876,2295,,
2.2298,Júpiter,41.428811,2.098831,2298,,
2.2299,Pl de la Tulipa-Satèl·lits,41.427898,2.096495,2299,,
2.230,Llúria-Urquinaona,41.390187,2.172837,230,,
2.2300,Orellana-Passatge Ossa Major,41.429397,2.096145,2300,,
2.2301,"Orellana,direcció El Rectoret",41.431629,2.096658,2301,,
2.2302,"Orellana,direcció Vallvidrera",41.431631,2.096545,2302,,
2.2303,Orellana,41.429388,2.096085,2303,,
2.2304,Pl de la Tulipa-Traviata,41.427801,2.096500,2304,,
2.2305,Júpiter-Lilà,41.428814,2.098968,2305,,
2.2306,Pg Marítim,41.385226,2.196301,2306,,
2.2307,Doctor Font Quer-Taronguers,41.367155,2.162499,2307,,
2.2308,Doctor Font Quer-Can Valero,41.365840,2.160554,2308,,
2.2309,Av Miramar-Pl Dante,41.369002,2.165788,2309,,
2.231,Ronda Guineueta Vella-Antonio Machado,41.441537,2.162056,231,,
2.2310,Av Miramar-Pl Carlos Ibáñez,41.370255,2.168879,2310,,
2.2311,Museu Nacional-Museu Etnològic,41.368603,2.156169,2311,,
2.2315,Castell,41.365070,2.167015,2315,,
2.2317,Via Sant Jordi,41.355737,2.157952,2317,,
2.2318,Sagrat Cor,41.355287,2.149860,2318,,
2.2319,Via Sant Oleguer,41.354466,2.154093,2319,,
2.232,Pl Karl Marx-Pg. Vall d'Hebron,41.440677,2.161721,232,,
2.2320,Via Santa Eulàlia,41.352876,2.152714,2320,,
2.2321,Metro Torras i Bages,41.442753,2.190861,2321,,
2.2322,Gran de Sant Andreu-Palomar,41.442239,2.188217,2322,,
2.2323,Pl Miquel Casablancas,41.439710,2.186420,2323,,
2.2324,Av de l'Estadi-Vivers,41.367099,2.158380,2324,,
2.2325,Can Valero-Pg del Migdia,41.362708,2.161237,2325,,
2.2326,Pl de la Sardana,41.367923,2.168871,2326,,
2.2327,Torre Baró,41.458312,2.184166,2327,,
2.2328,Av Vallbona-Estació RENFE,41.461285,2.180417,2328,,
2.2329,Pl Roja de La Ciutat Meridiana,41.461670,2.179475,2329,,
2.233,Sant Antoni Maria Claret-Independència,41.413257,2.176982,233,,
2.2330,Av Rasos de Peguera-Pl Roja,41.461572,2.178494,2330,,
2.2331,Av Rasos de Peguera-Costabona,41.460281,2.176682,2331,,
2.2332,Vallcivera-Moixeró,41.459538,2.176780,2332,,
2.2333,Jardins de Joaquim Ruyra,41.389512,2.138619,2333,,
2.2336,Pg. Zona Franca-Foc,41.356714,2.141340,2336,,
2.234,Mallorca-Dos de Maig,41.407311,2.180417,234,,
2.2341,Museu Nacional-Museu Etnològic,41.368543,2.156073,2341,,
2.2342,Mandri-Maó,41.403990,2.133123,2342,,
2.2343,Mandri-Bigai,41.405090,2.131920,2343,,
2.2345,València-Viladomat,41.383576,2.151303,2345,,
2.2347,Pere IV-Rambla del Poblenou,41.403734,2.198605,2347,,
2.2348,Llobregós-Pantà de Tremp,41.424643,2.156594,2348,,
2.2349,Dante Alighieri-Pantà de Tremp,41.425536,2.153675,2349,,
2.235,Consell de Cent-Cartagena,41.403777,2.182747,235,,
2.2350,Lisboa-Av Estatut de Catalunya,41.429243,2.157518,2350,,
2.2351,Tajo-Baixada Mercat,41.429730,2.160138,2351,,
2.2353,Porrera-Canigó,41.436838,2.158556,2353,,
2.2354,Hedilla-Porrera,41.436787,2.159626,2354,,
2.2355,Pg Universal-Pg de Valldaura,41.438522,2.159918,2355,,
2.2356,Cementiri d'Horta,41.440127,2.156043,2356,,
2.236,Aragó-Enamorats,41.405834,2.182955,236,,
2.2361,Santander-Rambla de Prim,41.425944,2.200878,2361,,
2.2362,Santa Amèlia-Capità Arenas,41.394194,2.124073,2362,,
2.2363,Gran Via-Radi,41.363662,2.134440,2363,,
2.2367,Ptge Garrofers-Av Mare de Déu de Montserrat,41.418572,2.173158,2367,,
2.2368,Les Corts-Arizala,41.379349,2.123384,2368,,
2.237,Diagonal-Pl Reina Maria Cristina,41.388444,2.127386,237,,
2.2370,Canudas-Pl Volateria,41.317925,2.075236,2370,,
2.2371,Av de l'Onze de Setembre-Roure,41.318198,2.081847,2371,,
2.2372,Canudas-Muntades,41.316915,2.075690,2372,,
2.2373,de la Selva-Osona,41.316380,2.072230,2373,,
2.2374,Canudas-Av Onze de Setembre,41.316137,2.075522,2374,,
2.2375,Av Onze de Setembre-Riu Anoia,41.318011,2.081877,2375,,
2.238,Sinaí,41.424848,2.138359,238,,
2.2383,Ronda de Dalt-Av J V Foix,41.401461,2.114210,2383,,
2.2384,Santa Amèlia,41.393075,2.121975,2384,,
2.2385,Av J V Foix-Pedró de la Creu,41.395580,2.120108,2385,,
2.2387,Av J V Foix-Pg Reina Elisenda,41.398098,2.119219,2387,,
2.2388,Av J V Foix-Monestir,41.399586,2.116707,2388,,
2.2389,Av J V Foix-Monestir,41.399066,2.117388,2389,,
2.239,Manuel Girona-Carles III,41.392127,2.128123,239,,
2.2390,Av. J.V.Foix-Pg. Reina Elisenda,41.398025,2.119089,2390,,
2.2392,Cardenal Reig-Arístides Maillol,41.378978,2.118717,2392,,
2.2394,Tiana-Campins,41.447624,2.200908,2394,,
2.2395,Aneto-Montmajor,41.432829,2.170243,2395,,
2.2398,Pg d'Urrutia-Cistellet,41.435849,2.165687,2398,,
2.2399,Riera Blanca-Les Corts,41.377488,2.121418,2399,,
2.24,Ronda Guineueta Vella-Barri Canyelles,41.444325,2.165219,24,,
2.2400,Pg d'Urrutia-Rocabruna,41.435331,2.167642,2400,,
2.2401,Montsant-Cadí,41.433461,2.170264,2401,,
2.2402,Montmajor-Pg de la Peira,41.432281,2.170503,2402,,
2.2404,Cartellà-Pl d'Àlvaro Cunqueiro,41.428681,2.168528,2404,,
2.2405,Costa i Cuixart-Amílcar,41.427684,2.172659,2405,,
2.2406,Av Meridiana-Pg de Fabra i Puig,41.429673,2.183676,2406,,
2.2407,Narcís Monturiol-Beat Oriol,41.491588,2.181306,2407,,
2.2408,Ctra BV 1411-Pau Casals,41.493220,2.178036,2408,,
2.2409,Bach-Ctra BV 1411,41.490877,2.177751,2409,,
2.241,Arquitectura-Àngel Marquès,41.429315,2.141186,241,,
2.2410,Av Ferreria-Química,41.485035,2.177943,2410,,
2.2412,Bach-Beat Oriol,41.491333,2.178032,2412,,
2.2414,Narcís Monturiol-Indústria,41.491793,2.181227,2414,,
2.2415,Garriga i Roca-Av Mare de Déu de Montserrat,41.419075,2.171905,2415,,
2.2416,2416,41.440258,2.164001,2416,,
2.2418,Cristóbal de Moura-Parc del Besòs,41.420430,2.218757,2418,,
2.2420,Cristóbal de Moura-La Catalana,41.422663,2.221781,2420,,
2.2421,Torrassa-Mare de Déu del Carme,41.426201,2.225424,2421,,
2.2422,Torrassa-Mare de Déu del Carme,41.426294,2.225239,2422,,
2.2427,Av de la Platja-Torrassa,41.426106,2.228265,2427,,
2.243,Av. Gaudí-Castillejos,41.410841,2.173773,243,,
2.2430,Pg de Sant Gervasi-Jardins de la Tamarita,41.410307,2.136564,2430,,
2.2431,Cister -Melilla,41.411227,2.132984,2431,,
2.2432,Quatre Camins-Teodor Roviralta,41.412018,2.133100,2432,,
2.2433,Esperança-Vilana,41.405046,2.128548,2433,,
2.2434,Esperança-Marquesa de Villalonga,41.403955,2.126414,2434,,
2.2435,Iradier-Planella,41.405360,2.124587,2435,,
2.2436,Planella-Marquesa de Villalonga,41.406771,2.126215,2436,,
2.2437,Bellesguard-Immaculada,41.408357,2.128032,2437,,
2.2438,Bellesguard-Valeta d'Arquer,41.409087,2.126430,2438,,
2.2439,Balsareny-Vista Bella,41.411613,2.129405,2439,,
2.244,València-Padilla,41.404688,2.179403,244,,
2.2440,Jesús Maria-Quatre Camins,41.410536,2.131587,2440,,
2.2441,Jesús Maria-Pg de Sant Gervasi,41.409656,2.132949,2441,,
2.2442,Esteve Terrades-Josep Jover,41.413894,2.140514,2442,,
2.2443,Parc Sanitari Pere Virgili,41.415052,2.139808,2443,,
2.2445,Collserola-Carlos Pirozzini,41.417201,2.135016,2445,,
2.2446,Enric Clarassó-Collserola,41.418248,2.133909,2446,,
2.245,Pl de la Font Castellana,41.415164,2.166882,245,,
2.2453,Anna Piferrer-Av de Vallcarca,41.417403,2.140708,2453,,
2.2454,Pg Andreu Nin -Parc Esportiu Can Dragó,41.434222,2.181472,2454,,
2.2455,Pg Ciutat de Mallorca-Piferrer,41.432926,2.178672,2455,,
2.2456,Pintor Alsamora-Piferrer,41.435137,2.179210,2456,,
2.2457,Escultor Ordóñez-Pintor Alsamora,41.435034,2.175878,2457,,
2.2458,Pg de Santa Madrona,41.368543,2.157981,2458,,
2.2459,Pg de Santa Madrona-Font del Gat,41.368435,2.158042,2459,,
2.246,Camèlies-Abd el-Kader,41.413864,2.164368,246,,
2.2461,Àvila-Tànger,41.400141,2.191106,2461,,
2.2464,Badajoz-Almogàvers,41.400431,2.193147,2464,,
2.2465,Viver-Av Elies Pagès,41.428671,2.131449,2465,,
2.2466,Viver-Cànoves,41.428999,2.129819,2466,,
2.2467,Cànoves 105,41.427981,2.128761,2467,,
2.2468,Cànoves-Sant Genís,41.427771,2.129981,2468,,
2.2469,Cànoves 49,41.427495,2.131999,2469,,
2.2470,Cànoves-Penitens,41.427163,2.133884,2470,,
2.2471,Cànoves-Natzaret,41.426775,2.134971,2471,,
2.2472,Elies Pagès-Pl Madrona Prat,41.427537,2.134798,2472,,
2.2473,Rambla de Prim-Riera d'Horta,41.425849,2.199649,2473,,
2.2474,Travessera de Gràcia-Pl Gal·la Placídia,41.398715,2.153747,2474,,
2.2475,Travessera de Gràcia-Mariana Pineda,41.400693,2.156869,2475,,
2.2476,Travessera de Gràcia-Torrent de l'Olla,41.401552,2.158230,2476,,
2.2477,Travessera de Gràcia-Torrent d'En Vidalet,41.403189,2.160822,2477,,
2.2478,Travessera de Gràcia-Torrent de les Flors,41.404015,2.162170,2478,,
2.2479,Encarnació-Escorial,41.407526,2.161776,2479,,
2.248,Cardenal Reig-Pintor Ribalta,41.377900,2.115790,248,,
2.2480,Encarnació-Torrent de les Flors,41.406217,2.159707,2480,,
2.2481,Pl de la Virreina,41.404669,2.157247,2481,,
2.2482,Ros de Olano-Torrent de l'Olla,41.402153,2.156638,2482,,
2.2483,Ros de Olano-Gran de Gràcia,41.401095,2.154769,2483,,
2.2484,Breton de los Herreros-Aulestià i Pijoan,41.402347,2.151759,2484,,
2.2485,Pl Mossèn Clapès-Gran de Sant Andreu,41.441959,2.187736,2485,,
2.2486,Gran de Sant Andreu-Campeny,41.439078,2.188695,2486,,
2.2487,Gran de Sant Andreu-Servet,41.437147,2.189506,2487,,
2.2488,Pl de Can Fabra,41.433939,2.191863,2488,,
2.2489,Gran de Sant Andreu-Ignasi Iglésias,41.433221,2.189296,2489,,
2.249,Pg Maragall-Borbó,41.425726,2.175451,249,,
2.2490,Gran de Sant Andreu-Llenguadoc,41.431312,2.189360,2490,,
2.2491,Garcilaso-Av Meridiana,41.422888,2.186161,2491,,
2.2492,Garcilaso-La Sagrera,41.422599,2.189158,2492,,
2.2493,Mare de Déu de Port-Pl Teresa Claramunt,41.362192,2.139499,2493,,
2.2494,Mare de Déu de Port-Sant Eloi,41.357545,2.143703,2494,,
2.2495,Mare de Déu de Port-Cisell,41.355878,2.145435,2495,,
2.2496,Cisell-Mare de Déu de Port,41.354714,2.144726,2496,,
2.25,Ronda Guineueta Vella-Col·legi Eugeni d'Ors,41.444835,2.167787,25,,
2.250,Diagonal-Manuel Ballbé,41.384044,2.110017,250,,
2.2501,Alumini-Ctra del Prat,41.359218,2.132920,2501,,
2.2502,Mineria-Mare de Déu de Port,41.364874,2.138295,2502,,
2.2503,Mare de Déu de Port-Mineria,41.363929,2.139182,2503,,
2.2504,Foneria-Energia,41.359498,2.136278,2504,,
2.2507,Garigliano-Almansa,41.446141,2.173969,2507,,
2.251,Diagonal-Parc de Cervantes,41.383631,2.108386,251,,
2.2510,Llobera-Baixada del Pedregar,41.449449,2.175218,2510,,
2.2511,Escales de Llobera,41.449870,2.176430,2511,,
2.2512,Cantera-Llobera,41.449226,2.177585,2512,,
2.2515,Aiguablava-Sa Tuna,41.451671,2.186287,2515,,
2.2516,Av Carrilet-Vigo,41.358420,2.103798,2516,,
2.2517,Rambla Marina-Cobalt,41.355637,2.104086,2517,,
2.2518,Av Pau Casals-Ctra del Mig,41.355929,2.107019,2518,,
2.252,Portal de la Pau,41.376695,2.178541,252,,
2.2528,Natzaret-Saldes,41.427860,2.137234,2528,,
2.253,Moll de la Fusta,41.378845,2.180278,253,,
2.2530,Gran Via Carles III-Pl Reina Maria Cristina,41.386861,2.126875,2530,,
2.2532,Carles III-Les Corts,41.382146,2.128466,2532,,
2.2533,Francesc Alegre-Budapest,41.416550,2.166290,2533,,
2.2536,Pg de Montjuïc-Nou de La Rambla,41.371950,2.167220,2536,,
2.2537,Constitució-Badal,41.369250,2.133513,2537,,
2.2539,Panorama-Labèrnia,41.419071,2.165420,2539,,
2.254,Pg. Colom-Via Laietana,41.380449,2.181573,254,,
2.2540,Cànoves-Viver,41.429368,2.128808,2540,,
2.2541,Diagonal-Metro Zona Universitària,41.384782,2.112930,2541,,
2.2542,Zona Universitària-Escola T S d'Enginyers,41.385077,2.115683,2542,,
2.2543,Diagonal-Metro Palau Reial,41.385850,2.118733,2543,,
2.2546,Gran Via-Ctra de Mataró,41.421837,2.211880,2546,,
2.2547,Gran Via-Ca n'Oliva,41.420297,2.209146,2547,,
2.2548,Cardenal Reig-Poblet,41.377610,2.115620,2548,,
2.255,Pg. Colom-Via Laietana,41.380454,2.181475,255,,
2.2550,Mini Estadi del F C Barcelona,41.380693,2.117823,2550,,
2.2551,Cardenal Reig-Pintor Tapiró,41.378962,2.118054,2551,,
2.2552,Escorial-Mare de Déu de la Salut,41.411739,2.157136,2552,,
2.2553,Pare Jacint Alegre-Sant Cugat del Vallès,41.412065,2.155572,2553,,
2.2554,Marianao-Mercedes,41.412667,2.154634,2554,,
2.2555,Olot-Marianao,41.413526,2.153397,2555,,
2.2557,Parc de Cervantes-Av d'Esplugues,41.385716,2.105099,2557,,
2.2558,Pg Joan de Borbó-Moll de Catalunya,41.370684,2.187572,2558,,
2.2559,Pg. Joan de Borbó-Moll de Catalunya,41.370738,2.187718,2559,,
2.256,Moll de la Fusta,41.379098,2.180379,256,,
2.2563,Ronda Universitat-Balmes,41.386708,2.166470,2563,,
2.2564,Sot del Migdia,41.359883,2.150627,2564,,
2.2565,Pg Olímpic-Palau Sant Jordi,41.361808,2.153870,2565,,
2.2566,Jardí Botànic,41.362746,2.156699,2566,,
2.2567,Av de l'Estadi-Pg Olímpic,41.366521,2.157458,2567,,
2.2568,Radas-Magalhäes,41.372630,2.160615,2568,,
2.2569,Pg de l'Exposició,41.370322,2.158603,2569,,
2.257,Portal de la Pau,41.376700,2.178442,257,,
2.2571,AV Remolar-Av Onze de Setembre,41.319702,2.090690,2571,,
2.2572,Santander-Via Trajana,41.428397,2.202582,2572,,
2.2573,Ctra de l'Església-Camí del Faig,41.417655,2.107103,2573,,
2.2574,Ctra de l'Esglèsia,41.418008,2.107397,2574,,
2.2575,Av Santa Coloma-Pg Llorenç Serra,41.450509,2.206815,2575,,
2.2577,Argentina-Bernat Metge,41.421474,2.212754,2577,,
2.2579,Carrer número 2-Carrer número 61,41.342760,2.140869,2579,,
2.258,Pg. Santa Coloma-Pg. Torras i Bages,41.444686,2.189161,258,,
2.2581,Vivers Tres Pins,41.366374,2.158748,2581,,
2.2582,Ctra d'Horta-Cotxeres TB,41.439572,2.154344,2582,,
2.2583,Parc de La Maquinista,41.435751,2.194654,2583,,
2.2584,Pl John F Kennedy,41.410114,2.137032,2584,,
2.2585,Ronda Guineueta Vella-Juan Ramon Jimenez,41.442855,2.162305,2585,,
2.2586,John M. Keynes-Diagonal,41.386272,2.116581,2586,,
2.2588,Ciutat d'Asunción-Pg de l'Havana,41.437766,2.200535,2588,,
2.2589,Sao Paulo-República Dominicana,41.438766,2.196485,2589,,
2.259,Ctra Nacional 152-Av l'Alzinar,41.460910,2.183157,259,,
2.2590,Sao Paulo-Ciutat d'Asunción,41.439046,2.199207,2590,,
2.2592,Ciutat d'Asunción-Fra Juníper Serra,41.435221,2.200969,2592,,
2.2593,Pg de l'Havana-Ciutat d'Asunción,41.438673,2.199386,2593,,
2.2594,Parc de la Maquinista,41.436779,2.196138,2594,,
2.2595,Ctra de Ribes-Ronda de Dalt,41.446106,2.189065,2595,,
2.2599,Fra Juníper Serra-Formiga,41.434114,2.201896,2599,,
2.2600,Fra Juníper Serra,41.433237,2.203279,2600,,
2.2601,Fra Juníper Serra-Santander,41.432720,2.204854,2601,,
2.2604,Av Rasos de Peguera-Complex Esportiu Can Cuiàs,41.459859,2.168467,2604,,
2.2605,Perafita,41.459522,2.168910,2605,,
2.2606,Alumini-Alts Forns,41.356086,2.135190,2606,,
2.2607,Larrard-Rambla Mercedes,41.412448,2.153883,2607,,
2.2608,Pl John F Kennedy-Av Tibidabo,41.409769,2.136751,2608,,
2.261,Pg Sant Gervasi-Pl John F Kennedy,41.410353,2.137659,261,,
2.2610,Les Agudes 140,41.460484,2.171967,2610,,
2.2616,Mercat Mare de Déu de la Mercè,41.430396,2.172730,2616,,
2.2617,Les Drassanes,41.374786,2.176747,2617,,
2.2618,Les Drassanes,41.374799,2.177143,2618,,
2.2619,Ctra de Ribes-Via Favència,41.447955,2.189627,2619,,
2.262,Av República Argentina-Baixada Gomis,41.411600,2.142521,262,,
2.2620,Ctra de Ribes-Tossal,41.448119,2.189624,2620,,
2.2622,Camí de l'Església-Rembrandt,41.434424,2.153321,2622,,
2.2623,Petúnies-Circumval·lació,41.463140,2.171490,2623,,
2.2625,Ganduxer-Via Augusta,41.398468,2.134904,2625,,
2.2626,Pg. Joan de Borbó-Pl. del Mar,41.374129,2.188249,2626,,
2.2627,Lilà-Júpiter,41.429367,2.100689,2627,,
2.2628,Lilà-Menta,41.429466,2.100864,2628,,
2.2629,Ctra de Vallvidrera-St Cugat,41.425867,2.120542,2629,,
2.263,Av de Madrid-Arizala,41.377042,2.125151,263,,
2.2630,Tossal-Pl Josep Andreu i Abelló,41.448727,2.190692,2630,,
2.2631,Av Barcelona-John F Kennedy,41.370592,2.076024,2631,,
2.2635,Av Baix Llobregat-Av Barcelona,41.371825,2.076187,2635,,
2.2636,Av Baix Llobregat-Àngel Guimerà,41.371495,2.077089,2636,,
2.2637,Av Baix Llobregat-Cirerers,41.369522,2.079140,2637,,
2.2638,Av Baix Llobregat-Enric Granados,41.370180,2.078688,2638,,
2.264,Av Ferrer i Guàrdia-Mèxic,41.371168,2.149875,264,,
2.2648,Av Meridiana-Riera d'Horta,41.427666,2.184637,2648,,
2.265,Poble Espanyol,41.369413,2.146283,265,,
2.2653,Comte d'Urgell-Buenos Aires,41.391780,2.145634,2653,,
2.2655,Collserola-Josep Garí,41.416248,2.136103,2655,,
2.2656,Vall Park,41.424782,2.135158,2656,,
2.2658,Pg. Marítim-Hospital del Mar,41.384326,2.195320,2658,,
2.266,Gran Vista-Doctor Bové,41.419148,2.158198,266,,
2.2660,Argentina-Gran Via,41.421294,2.212629,2660,,
2.2662,Segura-Jocs del 92,41.363199,2.145485,2662,,
2.2664,Aeroport-Mercaderies (Sentit Terminal T1),41.301437,2.068976,2664,,
2.2665,Indústria-Freser,41.415183,2.181780,2665,,
2.2667,Av Barcelona-Major,41.363394,2.058332,2667,,
2.2668,Sant Antoni Maria Claret-Pg Maragall,41.416159,2.180865,2668,,
2.2669,Villar-Pg Maragall,41.416401,2.179970,2669,,
2.267,Doctor Bové-Penyal,41.421063,2.162704,267,,
2.2670,Rambla Volart-Trobador,41.416212,2.178562,2670,,
2.2672,Torrent de Cal Notari,41.440242,2.150288,2672,,
2.2674,Mestre Dalmau-Feliu i Codina,41.433790,2.161694,2674,,
2.2675,Congrés-Doctor Letamendi,41.436963,2.160895,2675,,
2.2678,Pg Universal-Doctor Letamendi,41.437635,2.161452,2678,,
2.2679,Pl de Llevant,41.412058,2.218759,2679,,
2.268,Doctor Bové-Gran Vista,41.419353,2.158382,268,,
2.2680,Llull-Rambla Prim,41.413026,2.218229,2680,,
2.2681,Pg Reina Elisenda-Av JV Foix,41.398486,2.118457,2681,,
2.2682,Pujades-Marina,41.392794,2.188614,2682,,
2.2683,Rambla de Prim-Metro La Pau,41.422787,2.204613,2683,,
2.2685,Cardenal Reig-Av St Ramon Nonat,41.378374,2.117137,2685,,
2.2688,Josep Pla-Pg Taulat,41.408889,2.215881,2688,,
2.2689,Diagonal Mar,41.410283,2.218309,2689,,
2.269,Doctor Bové-Ptge de la Cadernera,41.420652,2.160419,269,,
2.2690,Av. Madrid-Joan Güell,41.380694,2.131584,2690,,
2.2691,Via Nostra-Sra de la Merçé,41.358723,2.154904,2691,,
2.2692,Via Sant Salvador,41.358719,2.157071,2692,,
2.2693,Via Sant Salvador-Via Sant Lluís,41.358418,2.155152,2693,,
2.2694,Via Sant Lluís,41.357989,2.153648,2694,,
2.2695,Enric Bargés-Numància,41.381575,2.140207,2695,,
2.2696,Entença-Gelabert,41.387386,2.140664,2696,,
2.2697,Pl Santa Magdalena,41.377442,2.088167,2697,,
2.2698,Espronceda-Bolivia,41.409414,2.199132,2698,,
2.2699,Espronceda-Pere IV,41.406595,2.202842,2699,,
2.27,Metro Marina,41.394436,2.187549,27,,
2.270,Doctor Bové-Baixada Passarell,41.420639,2.160178,270,,
2.2700,Espronceda-Jardins Josep Trueta,41.404384,2.205776,2700,,
2.2701,Palomar-Gran de Sant Andreu,41.441964,2.188648,2701,,
2.2704,Pg de Solé i Pla-Pollancres,41.427196,2.088845,2704,,
2.2705,Quarters-Av Riera de Sant Cugat,41.486244,2.181827,2705,,
2.2706,Pont d'Esplugues-Av de Cornellà,41.376368,2.087634,2706,,
2.2709,Pablo Iglesias-Av. Joan Carles I,41.349066,2.131052,2709,,
2.271,Doctor Bové-Conca de Tremp,41.419021,2.157833,271,,
2.2712,Foc-Metal·lúrgia,41.353259,2.134424,2712,,
2.2714,Av Joan Carles I-Botànica,41.350808,2.130744,2714,,
2.2716,Av de l'Exércit-Trias i Giró,41.386067,2.111525,2716,,
2.2717,Camp Mnpal de futbol Vallbona,41.463996,2.185424,2717,,
2.2718,Pl Primer de Maig,41.466135,2.186002,2718,,
2.272,Doctor Bové-Pg de la Font de la Mulassa,41.420911,2.163092,272,,
2.2721,Àvila-Almogàvers,41.398484,2.193280,2721,,
2.2722,Vapor-Treball,41.486833,2.179079,2722,,
2.2723,Badajoz-Llull,41.397598,2.196875,2723,,
2.2724,Larrard-Mare de Dèu de la Salut,41.410953,2.155677,2724,,
2.2725,Coll i Alentorn-Basses d'Horta,41.424382,2.143261,2725,,
2.2728,Pl Karl Marx-Ronda Guineueta Vella,41.440523,2.163226,2728,,
2.273,Hospital del Mar,41.383580,2.195021,273,,
2.2730,Àvila-Pujades,41.396636,2.195681,2730,,
2.2731,Àvila-Ramon Turró,41.395121,2.197670,2731,,
2.2733,Hospital de Sant Pau,41.415135,2.173498,2733,,
2.2734,Sant Quintí-Hospital de St Pau,41.415141,2.175771,2734,,
2.2735,Sant Quintí-Sant Antoni Maria Claret,41.413892,2.177423,2735,,
2.2736,Navas de Tolosa-Indústria,41.416606,2.185022,2736,,
2.2737,Navas de Tolosa-Meridiana,41.414711,2.187542,2737,,
2.2738,Navas de Tolosa-Clot,41.413390,2.189308,2738,,
2.2740,Bilbao-Pere IV,41.405217,2.200198,2740,,
2.2741,Pujades-Llacuna,41.400473,2.199013,2741,,
2.2742,Meridiana-Clot,41.406205,2.187123,2742,,
2.2743,Clot-Aragó,41.411974,2.189929,2743,,
2.2744,Muntanya-Mallorca,41.411700,2.185546,2744,,
2.2745,Eterna Memòria-Coll i Vehí,41.413215,2.182015,2745,,
2.2746,Sant Antoni Maria Claret-Dos de Maig,41.412332,2.175754,2746,,
2.2747,Fundació Puigvert,41.412927,2.172119,2747,,
2.2748,Mas Casanovas-Cartagena,41.413717,2.171588,2748,,
2.2750,St. Ramon de Penyafort-Manuel Fernández Márquez,41.415052,2.219790,2750,,
2.2751,Bilbao-Diagonal,41.405627,2.199653,2751,,
2.2752,CEIP Mercè Rodoreda,41.445948,2.186473,2752,,
2.2753,Av Rio de Janeiro-Tissó,41.441873,2.184616,2753,,
2.2754,Pg de la Peira-Montmajor,41.431811,2.169904,2754,,
2.2758,Ronda Guinardó-Segle XX,41.422636,2.177407,2758,,
2.2759,Oblit-Doctor Valls,41.420204,2.178837,2759,,
2.276,Av Barcelona-Marquès de Monistrol,41.368876,2.071416,276,,
2.2760,Oblit-direcció Dos de Maig,41.418876,2.176989,2760,,
2.2761,Carles Pirozzini-Collserola,41.416577,2.134612,2761,,
2.2762,Enginyeria-Marquès de Lamadrid,41.417721,2.132658,2762,,
2.2763,Enginyeria-Collserola,41.417913,2.131263,2763,,
2.2764,Collserola-August Font,41.418234,2.130838,2764,,
2.2765,Collserola-Salvador Alarma,41.418539,2.132135,2765,,
2.2766,Salvador Alarma-August Font,41.418991,2.133969,2766,,
2.2767,Josep M Jujol-August Font,41.419739,2.133616,2767,,
2.2768,Vallpar-Josep M Jujol,41.420191,2.134876,2768,,
2.2769,Vallpar-Navata,41.419247,2.135790,2769,,
2.277,Manuel Girona-Capità Arenas,41.391352,2.125005,277,,
2.2770,Ticià-Penitents,41.418328,2.136627,2770,,
2.2771,Ticià-Palma de St Genís,41.417612,2.137620,2771,,
2.2772,Bilbao-Pujades,41.403535,2.202486,2772,,
2.2773,Mare de Déu del Coll-Lorda,41.421006,2.149526,2773,,
2.2775,Pl Espanya,41.374565,2.148751,2775,,
2.2776,Trav de Dalt-Riera de Can Toda,41.412393,2.159227,2776,,
2.2778,Maurici Vilomara-Montserrat Casanovas,41.423199,2.162912,2778,,
2.2779,Maurici Vilomara-Doctor Coll,41.422910,2.163675,2779,,
2.278,Poble Sec,41.371526,2.160474,278,,
2.2780,Maurici Vilomara-Penyal,41.421957,2.164168,2780,,
2.2781,Penyal-Pl Font d'en Fargas,41.422314,2.163641,2781,,
2.2782,Penyal-Doctor Bové,41.421470,2.163597,2782,,
2.2783,Penyal-Font de la Mulassa,41.421709,2.163592,2783,,
2.2784,Penyal,41.422264,2.163566,2784,,
2.2785,Pl de la Font d'en Fargas,41.421850,2.164279,2785,,
2.2786,Maurici Vilomara-Doctor Coll,41.422768,2.164070,2786,,
2.2787,Pg Font d'en Fargas-Pintor Pradilla,41.423337,2.165296,2787,,
2.2788,Josep M Jujol-Vallpar,41.420968,2.133986,2788,,
2.2789,Dr Letamendi-Canigó,41.435441,2.159913,2789,,
2.279,França Xica-Concòrdia,41.372163,2.159497,279,,
2.2790,Eduard Toda-Rectoria,41.433790,2.159907,2790,,
2.2791,Concepció Arenal-Olesa,41.421996,2.183859,2791,,
2.2792,Mercat Mare de Déu de Montserrat,41.446213,2.179070,2792,,
2.2793,Pla de Fornells-Jaume Pinent,41.446390,2.176684,2793,,
2.2794,Romaní-Les Torres,41.446570,2.175161,2794,,
2.2798,Rodrigo Caro-Artesania,41.447090,2.171453,2798,,
2.2799,Quarter de Simancas-Almansa,41.445381,2.173301,2799,,
2.28,Ciutat Sanitària de la Vall d'Hebron,41.426892,2.142992,28,,
2.280,França Xica-Grases,41.372081,2.156342,280,,
2.2800,Av. República Argentina-Vallcarca,41.411415,2.144566,2800,,
2.2801,Via Barcino-Vicenç Montal,41.453973,2.193639,2801,,
2.2804,"Pl del Complex Funerari,direcció Recinte",41.470114,2.155888,2804,,
2.2805,"Pl del Complex Funerari,direcció Barcelona",41.470213,2.155975,2805,,
2.2806,Pg Sant Jordi-Pau Casals,41.494018,2.178981,2806,,
2.2808,Zona Franca-Carrer número 4,41.331288,2.128471,2808,,
2.2809,Carrer número 4,41.332218,2.125814,2809,,
2.281,Pg de Gràcia-Diagonal,41.396140,2.160125,281,,
2.2810,Zona Franca-Mercabarna,41.333426,2.122373,2810,,
2.2811,Carrer número 4-Carrer número 50,41.334988,2.117919,2811,,
2.2812,Carrer K-Carrer número 40,41.331815,2.111067,2812,,
2.2813,Carrer K-Carrer número 6,41.328857,2.111918,2813,,
2.2819,Av Remolar-Av Apel·les Mestre,41.326449,2.087030,2819,,
2.282,Casanova-Diagonal,41.393181,2.148577,282,,
2.2821,Av Remolar-Rda de Ponent,41.325935,2.086967,2821,,
2.2827,"Mercabarna-Entrada ""El Prat""",41.328678,2.112304,2827,,
2.2828,Carrer K,41.331783,2.111252,2828,,
2.2831,Concepció Arenal-Juan de Garay,41.420557,2.183852,2831,,
2.2832,Juan de Garay-Navas de Tolosa,41.418549,2.181793,2832,,
2.2833,Pg de Gràcia-Ronda de Sant Pere,41.388804,2.169210,2833,,
2.2834,Almogàvers-Joan d'Austria,41.396140,2.188613,2834,,
2.2835,Moianés-Cuyàs,41.371254,2.142347,2835,,
2.2836,Magòria,41.369643,2.141705,2836,,
2.2837,Mossèn Amadeu Oller-Gran Via,41.368340,2.138889,2837,,
2.2838,Metro Penitens,41.417545,2.140354,2838,,
2.284,Lepant-Av Diagonal,41.402420,2.179261,284,,
2.2840,Esteve Terradas,41.413297,2.140949,2840,,
2.2841,Gustavo Bécquer-Av de Vallcarca,41.415770,2.142615,2841,,
2.2842,Baró de la Barre-Gustavo Bécquer,41.414368,2.144395,2842,,
2.2843,Tirso-Mora la Nova,41.419009,2.150976,2843,,
2.2844,Tirso-Pl Laguna Lanau,41.417764,2.150112,2844,,
2.2845,Aldea-Font del Remei,41.418504,2.149996,2845,,
2.2846,Duran i Borrell-Baixada de Sant Marià,41.418040,2.149319,2846,,
2.2847,Torrent del Remei-Riu de la Plata,41.416153,2.148343,2847,,
2.2848,Sant Eudald-Mora d'Ebre,41.414797,2.147175,2848,,
2.2849,Sant Eudald-Pl Mons,41.413657,2.145277,2849,,
2.285,Muntaner-Diagonal,41.394812,2.148471,285,,
2.2850,Cardedeu-Pg Mare de Déu del Coll,41.415296,2.145261,2850,,
2.2851,Montornés-Cardedeu,41.416700,2.144083,2851,,
2.2852,Montornés-Capellades,41.417916,2.142614,2852,,
2.2854,Capellades-Montornés,41.418229,2.141883,2854,,
2.2855,Gaspar Cassadó-Can Caralleu,41.400607,2.113285,2855,,
2.2856,Esports-Ronda de Dalt,41.400857,2.112179,2856,,
2.2858,Major de Can Caralleu-Ptge Blada,41.402174,2.110293,2858,,
2.2859,CEIP Costa i Llobera,41.401999,2.109106,2859,,
2.286,Via Augusta-Diagonal,41.396383,2.155058,286,,
2.2861,Pins de Can Caralleu-Lliçà,41.403157,2.108480,2861,,
2.2862,Pins de Can Caralleu,41.403846,2.108573,2862,,
2.2863,Pl de Mossèn Miquel Vall i Mundó,41.403153,2.109770,2863,,
2.2864,Torrent de Can Caralleu-Major de Can Caralleu,41.401806,2.112006,2864,,
2.2866,Ramon Miquel Planas-Duquesa d'Orleans,41.399875,2.118133,2866,,
2.2869,Pedró de la Creu-Gresolet,41.397610,2.121980,2869,,
2.287,Calvet-Diagonal,41.393460,2.144983,287,,
2.2870,Av J V Foix-Mendel,41.397178,2.120184,2870,,
2.2872,Saragossa-Ronda General Mitre,41.405680,2.143706,2872,,
2.2876,Lucà-Craywinckel,41.411048,2.138915,2876,,
2.2878,Craywinckel-Hurtado,41.411747,2.138929,2878,,
2.2879,Hurtado-Espinoi,41.410644,2.140716,2879,,
2.2880,Marmellà-Hurtado,41.409849,2.141319,2880,,
2.2881,Solanes-Bertran,41.410170,2.140087,2881,,
2.2882,Caire-República Argentina,41.411446,2.141050,2882,,
2.2883,Portolà-Ferran Puig,41.410773,2.142817,2883,,
2.2884,Ferran Puig-Jardins Turó del Putxet,41.410053,2.143977,2884,,
2.2885,Ferran Puig-Agramunt,41.408927,2.145169,2885,,
2.2886,Ballester-Ferran Puig,41.407332,2.146348,2886,,
2.2888,Putxet-Cadis,41.406452,2.143974,2888,,
2.289,Balmes-Diagonal,41.395776,2.154022,289,,
2.2890,Pg Vall d'Hebron-Trueba,41.423414,2.141806,2890,,
2.2891,Av Martí Codolar-Coll i Alentorn,41.424709,2.147840,2891,,
2.2892,"Av Tibidabo-La ""Rotonda""",41.410967,2.136589,2892,,
2.2893,Av Tibidabo-Jardins de la Tamarita,41.410734,2.136551,2893,,
2.2895,Carles Riba-Josep Maria Lledó,41.411659,2.123677,2895,,
2.2897,Jaume Vicens i Vives - Av Icària,41.394310,2.201214,2897,,
2.2898,Parc Diagonal Mar,41.408326,2.211940,2898,,
2.2899,Josep Pla-Pallars,41.411222,2.212756,2899,,
2.29,Sant Genís dels Agudells-Natzaret,41.429197,2.138050,29,,
2.2900,Josep Pla-Venezuela,41.413271,2.210040,2900,,
2.2901,Josep Pla - Pere IV,41.414718,2.208122,2901,,
2.2902,Josep Pla-Perú,41.416328,2.206079,2902,,
2.2903,Selva de Mar-Perú,41.414205,2.201844,2903,,
2.2904,Selva de Mar-Marroc,41.411874,2.204930,2904,,
2.2905,Selva de Mar-Venezuela,41.409723,2.207780,2905,,
2.2906,Selva de Mar-Llull,41.408127,2.209802,2906,,
2.2907,Pg. Taulat-Bac de Roda,41.402743,2.209682,2907,,
2.2908,Taulat-Bilbao,41.400702,2.207143,2908,,
2.2909,Taulat-Rambla del Poblenou,41.398299,2.204189,2909,,
2.291,Carles III-Mejía Lequerica,41.385240,2.127519,291,,
2.2910,Taulat-Ciutat de Granada,41.396210,2.201685,2910,,
2.2911,Av Jordà-Hospital St Rafael,41.425109,2.141409,2911,,
2.2912,Judea-Av Jordà,41.425039,2.140801,2912,,
2.2913,Av Rio de Janeiro-Pintor Alsamora,41.435530,2.180073,2913,,
2.2914,Pg Andreu Nin-Av Rio de Janeiro,41.432500,2.180897,2914,,
2.2915,Vèlia-Pg de Fabra i Puig,41.429057,2.180692,2915,,
2.2916,Rambla de Badal-Constitució,41.368248,2.132978,2916,,
2.2917,Cantàbria-Andrade,41.417549,2.204111,2917,,
2.2920,Francesc Cambó-Gral Alvarez de Castro,41.386353,2.177896,2920,,
2.2923,Placeta del Comerç,41.389981,2.180403,2923,,
2.2925,Pl Pons Clerch,41.386496,2.181858,2925,,
2.2926,Princesa-Montcada,41.385258,2.180294,2926,,
2.2927,Ample-Fusteria,41.381255,2.180570,2927,,
2.2928,Pl de la Mercè,41.379508,2.179321,2928,,
2.2929,Pl del Duc de Medinaceli,41.378350,2.178538,2929,,
2.293,Av Joan XXIII-Pl Pius XII,41.385641,2.122614,293,,
2.2930,Torres i Amat-Ptge St Bernat,41.384417,2.164674,2930,,
2.2931,Mont d'Orsà-Pl Vallvidrera,41.412948,2.104229,2931,,
2.2933,Ronda de Dalt-Cister,41.413221,2.130465,2933,,
2.2935,Camí Fontfreda-València,41.493156,2.189429,2935,,
2.2936,Castelló-Rigola,41.494585,2.187135,2936,,
2.294,González Tablas-Manuel Ballbé,41.386553,2.107288,294,,
2.2943,Castelló-Eivissa,41.494396,2.186241,2943,,
2.2944,Camí Fontfreda-Castelló,41.493575,2.189317,2944,,
2.2946,Espronceda- Guipuscoa,41.414149,2.192836,2946,,
2.2947,Espronceda-Gran Via,41.411500,2.196362,2947,,
2.2949,Gran Via-St Martí Provençals,41.415806,2.203737,2949,,
2.295,González Tablas-Av de l'Exèrcit,41.385455,2.109486,295,,
2.2950,Beret-Teide,41.432141,2.167670,2950,,
2.2951,Cadí-Teide,41.431258,2.168594,2951,,
2.2952,Constitució-Jocs Florals,41.369869,2.136626,2952,,
2.2953,Capella de Can Caralleu-Saüc,41.402323,2.107370,2953,,
2.2954,Camí de Lliçà,41.402363,2.106685,2954,,
2.2955,Agrupacións números 5 i 6,41.458959,2.158234,2955,,
2.2956,Agrupacions números 3 i 4,41.456752,2.157843,2956,,
2.2957,Agrupació número 11,41.454968,2.160387,2957,,
2.2958,Agrupacions números 7 i 8,41.457473,2.158552,2958,,
2.2959,Agrupació número 8,41.458933,2.159407,2959,,
2.296,Av Doctor Marañón-Baldiri i Reixac,41.382055,2.113965,296,,
2.2960,Agrupacions números 8 i 9,41.457933,2.161757,2960,,
2.2961,Agrupació número 10,41.457891,2.160635,2961,,
2.2962,Agrupacións números 9 i 10,41.456883,2.162312,2962,,
2.2963,Agrupació número 9,41.457551,2.163897,2963,,
2.2965,Av Granvia-Natzaret,41.359724,2.128407,2965,,
2.2966,Amadeu Torner,41.356535,2.124157,2966,,
2.2968,Amadeu Torner,41.355497,2.123853,2968,,
2.297,Av. Pedralbes-Pg. Manuel Girona,41.389140,2.120058,297,,
2.2970,Av Granvia-Física,41.359303,2.128855,2970,,
2.2973,Pl del Doctor Andreu,41.416118,2.131139,2973,,
2.2974,Tanatori de la Vall d'Hebron,41.440477,2.154804,2974,,
2.2976,Fastenrath-Arenys,41.421870,2.142898,2976,,
2.2977,Llobera,41.449991,2.177880,2977,,
2.2978,Rodrigo Caro-Llobera,41.449152,2.174530,2978,,
2.2979,Rodrigo Caro-Fornells,41.448489,2.173766,2979,,
2.2980,Rodrigo Caro-Ojeda,41.447733,2.173178,2980,,
2.2983,Bac de Roda-Pere IV,41.409156,2.201948,2983,,
2.2984,Cardenal Reig-Pisuerga,41.376845,2.114238,2984,,
2.2985,Aiguablava-Tamariu,41.450115,2.184057,2985,,
2.2986,Pere IV-Diagonal,41.405938,2.200299,2986,,
2.2987,Fastenrath-Llobregós,41.421636,2.151500,2987,,
2.2989,Mare de Déu de Port-Cantunis,41.351831,2.155833,2989,,
2.2990,Ricart-Av Paral·lel,41.374355,2.158264,2990,,
2.2991,Eduard Maristany-St Ramon de Penyafort,41.413214,2.220895,2991,,
2.2992,Pl Pius XII-Av Pedralbes,41.387796,2.122521,2992,,
2.2993,Diagonal-Roger de Flor,41.399316,2.170982,2993,,
2.2995,Alfons XIII-Josep M de Segarra,41.441119,2.231639,2995,,
2.2996,Av. Marquès de Montroig-Pl. Pres. Tarradellas,41.440867,2.234111,2996,,
2.2997,Alfons XIII-Pau Claris,41.441061,2.231218,2997,,
2.2998,Alfons XIII-Sant Lluc,41.439490,2.228244,2998,,
2.2999,Foc-Sot del Migdia,41.359970,2.150425,2999,,
2.3,València-Muntaner,41.388546,2.157891,3,,
2.30,Sant Genís dels Agudells,41.429430,2.138145,30,,
2.300,Pujades-Ciutat de Granada,41.398780,2.196767,300,,
2.3000,Palau Sant Jordi,41.361585,2.152954,3000,,
2.3001,Estació RENFE - Andana 2,41.331022,2.090552,3001,,
2.3002,Pedrera del Mussol-Marbre,41.361364,2.147852,3002,,
2.3004,Pg del Pi Forcat-Pg del Grèvol,41.422590,2.087255,3004,,
2.3005,Pg del Grèvol,41.421732,2.086604,3005,,
2.3006,Pg del Grèvol-Camí de Can Castellví,41.420098,2.084957,3006,,
2.3007,Pg del Grèvol-Pg del Pi Forcat,41.421727,2.086949,3007,,
2.3008,CAP Les Hortes,41.371784,2.166790,3008,,
2.3009,CAP Vallvidrera,41.413993,2.103914,3009,,
2.3010,Centre Cívic Vallvidrera,41.415218,2.102630,3010,,
2.3011,CEIP Nabí,41.416789,2.101237,3011,,
2.3012,Reis Catòlics-Llicorella,41.415007,2.102778,3012,,
2.3013,Mercat de Vallvidrera,41.414071,2.103697,3013,,
2.3014,Camí de Vallvidrera-Camí de Cal Totxo,41.420525,2.119084,3014,,
2.3016,Peñíscola-Pare Manjón,41.453178,2.189939,3016,,
2.3017,Turó de La Trinitat-Ausona,41.452883,2.191415,3017,,
2.3018,Turó de La Trinitat-Foradada,41.451127,2.190698,3018,,
2.3019,Turó de La Trinitat-Madriguera,41.449911,2.190158,3019,,
2.3020,Montagut-Vila-seca,41.434063,2.168249,3020,,
2.3021,Espinagua-Darnius,41.435154,2.166252,3021,,
2.3023,Ildefons Cerdà-Ciutat de la Justícia,41.363809,2.133837,3023,,
2.3024,Av Granvia-Alhambra,41.361903,2.131302,3024,,
2.3025,Mireia-Finestrelles,41.451138,2.189396,3025,,
2.3026,Mireia-Ausona,41.452335,2.189550,3026,,
2.3029,Pl. Rosa dels Vents,41.368316,2.187790,3029,,
2.3030,Pg de l'Escullera,41.369148,2.187946,3030,,
2.3032,Ronda St Pere-Pg de Gràcia,41.388357,2.170859,3032,,
2.3033,Av del Baix Llobregat-Miquel Roncali,41.353276,2.065013,3033,,
2.3034,Av del Baix Llobregat-Verge de Montserrat,41.350291,2.070460,3034,,
2.3035,Av del Baix Llobregat-Fivaller,41.349392,2.076231,3035,,
2.3036,Av Pablo Picasso-Av del Maresme,41.352299,2.088774,3036,,
2.3037,Anoia-Arquitecte Calzada,41.357104,2.078384,3037,,
2.3038,Av del Baix Llobregat-St Antoni M Claret,41.367782,2.080330,3038,,
2.3040,Ctra de St Boi-Pl Quatre Camins,41.355552,2.064627,3040,,
2.3041,Aeroport-Terminal T2-C (Sentit Terminal T1),41.305002,2.081808,3041,,
2.3043,Aeroport-Terminal T1,41.287688,2.073001,3043,,
2.3046,Anna Piferrer-Betània,41.417340,2.140863,3046,,
2.3047,Aeroport-Terminal T2-A B (Sentit Terminal T1),41.302816,2.075741,3047,,
2.3048,Aeroport-Terminal T2-B (Sentit Terminal T1),41.304204,2.079476,3048,,
2.3050,Indústria-Guinardó,41.416029,2.182948,3050,,
2.3051,La Murtra-Sta Albina,41.424120,2.150737,3051,,
2.3052,Castellbisbal-Sta Rosalía,41.421367,2.144276,3052,,
2.306,Pg de Verdum-Doctor Pi i Molist,41.435869,2.172375,306,,
2.307,Av Gaudí,41.410032,2.175154,307,,
2.308,València-Dos de Maig,41.406488,2.181804,308,,
2.309,Diagonal-Complex Esportiu Universitari,41.383268,2.107874,309,,
2.3092,Escolapi Cancer-Metro Torre Baró/Vallbona,41.458839,2.180449,3092,,
2.3095,Av Verge de Montserrat-Av del Remolar,41.323883,2.089638,3095,,
2.3098,Av l'Alzinar-Tapioles,41.462970,2.183644,3098,,
2.31,Llull-Àlaba,41.396020,2.195520,31,,
2.310,Diagonal-Av Doctor Marañón,41.384222,2.111612,310,,
2.3114,Tirso de Molina-Av St Ferran,41.351638,2.085038,3114,,
2.3115,Tirso de Molina-Av de la Fama,41.350433,2.081375,3115,,
2.3116,Av Baix Llobregat-Joan Fiveller,41.349549,2.075816,3116,,
2.3117,Av Baix Llobregat-Ptge Francesc Layret,41.350268,2.070835,3117,,
2.3118,Av Baix Llobregat-Miguel de Roncali,41.353245,2.065197,3118,,
2.3119,Ctra de St Boi-Campoamor,41.355342,2.064530,3119,,
2.312,Comte d'Urgell-Gran Via,41.382668,2.157998,312,,
2.3120,Pl de l'Esglèsia,41.356205,2.070048,3120,,
2.3121,Av dels Alps-Crta. d'Esplugues,41.356269,2.073169,3121,,
2.3122,Ctra d'Esplugues-Catalunya,41.358619,2.072177,3122,,
2.3123,Ctra de l'Hospitalet-Vallès,41.355121,2.083343,3123,,
2.3124,Av St Ferran-Marià Fortuny,41.353526,2.084651,3124,,
2.3125,Metro Tarragona,41.378467,2.145255,3125,,
2.3126,Pl dels Països Catalans-Estació de Sants,41.379787,2.141088,3126,,
2.3127,Estació de Sants,41.379475,2.138653,3127,,
2.313,Pg de Gràcia-Gran Via,41.390138,2.167560,313,,
2.3130,Ctra d'Esplugues-Pl Prat de la Riba,41.357803,2.072666,3130,,
2.3131,Ctra d'Esplugues-Rbla Anselm Clavé,41.356083,2.071896,3131,,
2.3132,Av Verge de Montserrat-Aleix Aguilera i Ginabreda,41.324021,2.089305,3132,,
2.3133,Sta Amèlia-Eduard Conde,41.392823,2.121692,3133,,
2.3134,Sta Amèlia-Or,41.393802,2.123563,3134,,
2.3135,Jacint Verdaguer - Josep Trueta,41.373761,2.071302,3135,,
2.3136,Av Baix Llobregat-Jacint Verdaguer,41.373858,2.073608,3136,,
2.3137,Ctra de St Joan Despí-Ctra de St Boi,41.356876,2.065722,3137,,
2.3138,Ctra de St Joan Despí-Terra Alta,41.360076,2.062340,3138,,
2.314,Calàbria-Gran Via,41.379981,2.154739,314,,
2.3140,Pl Volateria-Canudas,41.318841,2.074251,3140,,
2.3141,Pg. Lluís Companys-Almogàvers,41.391189,2.181295,3141,,
2.3147,Av Catalunya-Estanislau Abadal,41.498007,2.184564,3147,,
2.3148,Av Catalunya-Ramon i Cajal,41.497267,2.184036,3148,,
2.315,Pg. Sant Joan-Diputació,41.395419,2.174671,315,,
2.3150,Joan Miró-Frederic Monpou,41.499883,2.180203,3150,,
2.3151,Joan Miró-Camí de Can Cabanyes,41.497532,2.178288,3151,,
2.3153,Ferrer i Guàrdia-Puigcerdà,41.493789,2.184407,3153,,
2.3154,Pla de Matabous-Alacant,41.493418,2.184989,3154,,
2.3155,Ctra BV 1411-Tagamanent,41.493072,2.181137,3155,,
2.3156,Pg St Jordi-Pep Ventura,41.493925,2.180824,3156,,
2.3157,Bach-Pg St Jordi,41.494002,2.177471,3157,,
2.3158,Pg d'Urrutia-Dr Pi i Molist,41.434765,2.170872,3158,,
2.3159,Nil-Dr Pi i Molist,41.434170,2.171707,3159,,
2.316,Aribau-Gran Via,41.386042,2.162533,316,,
2.3160,St Iscle-Travau,41.434251,2.170281,3160,,
2.3162,Praga-Rda Guinardó,41.412367,2.164262,3162,,
2.3163,Via Favència-Pg de Valldaura,41.440250,2.163984,3163,,
2.3166,Pl de Joan Peiró,41.378404,2.138972,3166,,
2.3167,Pl dels Països Catalans-St Antoni,41.379468,2.141436,3167,,
2.3168,Pl dels Països Catalans,41.379564,2.141332,3168,,
2.317,Pl Tetuan-Pg de Sant Joan,41.395471,2.175272,317,,
2.3173,Petúnies-Circumval·lació,41.463563,2.171102,3173,,
2.3174,Diagonal-Complex Esportiu Universitari,41.384080,2.111707,3174,,
2.3175,Bonaplata,41.396040,2.124158,3175,,
2.3176,Bonaplata-Pedró de la Creu,41.397195,2.122048,3176,,
2.3177,Ramon Miquel Planas-Major de Sarrià,41.400933,2.120234,3177,,
2.3178,Clos de St Francesc-Pg Reina Elisenda de Montcada,41.399326,2.120568,3178,,
2.318,Padilla-Gran Via,41.401357,2.182958,318,,
2.3180,Teide-Pg de Fabra i Puig,41.430184,2.169114,3180,,
2.3181,Via Favència-Rda de Dalt,41.446932,2.185259,3181,,
2.3182,Av Catalunya-Frederic Mompou,41.498528,2.184724,3182,,
2.3184,Teodor Roviralta-Manuel Ramon,41.414362,2.130033,3184,,
2.3185,Carles Riba-Bellesguard,41.412336,2.125969,3185,,
2.3187,Pl Bifurcació,41.482279,2.169020,3187,,
2.3189,Ronda de Dalt-Pl de la Central,41.414354,2.133304,3189,,
2.319,Entença-Gran Via,41.378374,2.152350,319,,
2.3190,Pujades-Roc Boronat,41.400355,2.198857,3190,,
2.3191,Josep Maria Lledó-Bellesguard,41.410790,2.124829,3191,,
2.3197,Aeroport-Mercaderies,41.301424,2.068814,3197,,
2.320,Tarragona-Parc de Joan Miró,41.376704,2.147419,320,,
2.3203,Renaixença-Vinya,41.418112,2.177165,3203,,
2.3204,Villar-Xiprer,41.416985,2.178031,3204,,
2.3205,Xiprer-Vinya,41.417978,2.179004,3205,,
2.3206,Benet i Mateu-Pl Artós,41.395472,2.125497,3206,,
2.3207,Peñíscola-Ausona,41.453127,2.189833,3207,,
2.3208,Pg Maragall-Sta Joaquina Vedruna,41.421110,2.179985,3208,,
2.3209,Pg Maragall-Puerto Príncipe,41.420883,2.180412,3209,,
2.321,Llúria-Gran Via,41.392009,2.170423,321,,
2.3210,Pl del Nou-Estany,41.353419,2.141551,3210,,
2.3211,Plom-Ferro,41.352676,2.139329,3211,,
2.3212,Acer-Plom,41.351745,2.136789,3212,,
2.3213,Acer-Arnes,41.350340,2.138123,3213,,
2.3214,Metal·lúrgia-Motors,41.349350,2.137333,3214,,
2.3215,Marina-Travessera de Gràcia,41.409057,2.168550,3215,,
2.3216,Alcalde de Móstoles-Guinardó,41.410983,2.166022,3216,,
2.3217,Joan d'Alòs-Miret i Sans,41.393221,2.108969,3217,,
2.3218,Abadessa Olzet-Montevideo,41.394881,2.108742,3218,,
2.3219,Panamà-Abadessa Olzet,41.395548,2.107364,3219,,
2.3220,Av Pearson-Ptge Ametllers,41.393174,2.104366,3220,,
2.3221,Pg Vall d'Hebron-Granja Vella,41.427775,2.143402,3221,,
2.3222,Palau Reial,41.385832,2.117936,3222,,
2.3223,Pl Reina Maria Cristina,41.387834,2.125799,3223,,
2.3224,Padilla-Túnel de la Rovira,41.412898,2.167563,3224,,
2.3225,Gornal,41.353128,2.119632,3225,,
2.3226,Guinardó-Lepant,41.412212,2.167491,3226,,
2.3227,Recinte sanitari Sant Pau,41.413955,2.171310,3227,,
2.3228,Recinte sanitari Sant Pau,41.414517,2.169839,3228,,
2.3229,Guinardó-Parc de les Aigües,41.412261,2.166400,3229,,
2.3231,Marina-Monumental,41.399367,2.180753,3231,,
2.3232,Capità Arenas-Maria Cristina,41.388963,2.126615,3232,,
2.3233,ETS d'Arquitectura,41.384838,2.113992,3233,,
2.3234,Pl. Pius XII,41.386586,2.120894,3234,,
2.3235,Sardenya-Rda Guinardó,41.412456,2.162143,3235,,
2.3236,Gran Via-Pl. Espanya,41.375671,2.149598,3236,,
2.3237,Tarragona-Pl. Espanya,41.375987,2.148778,3237,,
2.324,Ctra de Collblanc-Albéniz,41.375966,2.105988,324,,
2.3240,Vila i Vilà-Mata,41.373384,2.171366,3240,,
2.3241,Pg de St Joan-Ausias Marc,41.392377,2.178651,3241,,
2.3242,Travessera de Les Corts-Prat d'En Rull,41.388516,2.137870,3242,,
2.3243,Esteve Terrades-Parc Sanitari Pere Virgili,41.415257,2.139222,3243,,
2.3244,Parc Sanitari-Pere Virgili,41.415143,2.140043,3244,,
2.3245,Esteve Terrades-Pl Alfonso Comín,41.415363,2.138463,3245,,
2.3246,Pl Espanya-Centre Comercial Las Arenas,41.375579,2.149056,3246,,
2.3247,Gran Via-Pl. Espanya,41.375495,2.150187,3247,,
2.3248,Av Reina Maria Cristina-Pl de l'Univers,41.373710,2.150183,3248,,
2.3250,Pedrera del Mussol-Can Clos,41.361089,2.147967,3250,,
2.3251,Pg Olímpic-Av de l'Estadi,41.365718,2.157295,3251,,
2.3252,Estadi Olímpic,41.365198,2.157467,3252,,
2.3253,Vivers,41.366473,2.158018,3253,,
2.3254,Cementiri de Montjuïc,41.353169,2.155309,3254,,
2.3255,Pallars-Ciutat de Granada,41.400330,2.196783,3255,,
2.3256,Roc Boronat-Doctor Trueta,41.397689,2.201096,3256,,
2.3257,Llacuna-Ramón Turró,41.398492,2.202467,3257,,
2.3258,Llacuna-Pallars,41.401275,2.198794,3258,,
2.3262,Marina-Monumental,41.399574,2.180795,3262,,
2.3263,Sarrià,41.403922,2.114582,3263,,
2.3264,Els Vergós,41.396483,2.126290,3264,,
2.3265,Pg Sant Joan Bosco,41.394893,2.126818,3265,,
2.3266,Pg. Sant Joan Bosco-Prat de la Riba,41.392926,2.129376,3266,,
2.3267,Constança,41.389283,2.134843,3267,,
2.3268,Av Sarrià,41.391426,2.132746,3268,,
2.3269,Av. Sarrià-Prat de la Riba,41.392524,2.130705,3269,,
2.327,Pare Manyanet-Josep Soldevila,41.428125,2.194761,327,,
2.3270,Cartagena-Av Gaudí,41.411504,2.173992,3270,,
2.3271,Joan Miró-Av Europa,41.496372,2.177711,3271,,
2.3272,Pg de St Jordi-Tagamanent,41.493913,2.181040,3272,,
2.3273,Joan Miró-Salvador Dalí,41.497553,2.178513,3273,,
2.3274,Joan Miró-Victòria dels Àngels,41.499727,2.180289,3274,,
2.3275,Baró St Lluís-Polonia,41.415618,2.164259,3275,,
2.3276,Torre Dulac-Tenerife,41.416368,2.163766,3276,,
2.3277,Joan Miró-Consell de Cent,41.495013,2.177340,3277,,
2.328,Av Meridiana-Pegaso,41.425401,2.186490,328,,
2.3281,Lloret de Mar-Eduard Toda,41.435657,2.157288,3281,,
2.3282,Sant Adrià-Josep Soldevila,41.434234,2.192854,3282,,
2.3283,Segre-Torrent Estadella,41.433340,2.192702,3283,,
2.3284,Segre-Borriana,41.430929,2.194826,3284,,
2.3286,Ernest Lluch,41.376342,2.112068,3286,,
2.3288,Vall d'Aran-Rda de Ponent,41.328440,2.086733,3288,,
2.3289,Vall d'Aran-Av del Remolar,41.328366,2.086883,3289,,
2.329,Av Pi i Margall-Av Catalunya,41.432803,2.215877,329,,
2.3290,Felip Díaz Sandino (Sentit T2),41.298064,2.055583,3290,,
2.3291,Av de l'Aeroport (Sentit T1),41.299696,2.054485,3291,,
2.3292,Torrent de Tapioles-Torre Vella,41.462741,2.184415,3292,,
2.3293,Pg Sant Joan Bosco,41.394524,2.127503,3293,,
2.3294,Foc-Ferrocarrils Catalans,41.358401,2.143859,3294,,
2.3295,Via Favència-Metro Canyelles,41.441563,2.165766,3295,,
2.3299,Coronel Sanfeliu-Lleida,41.322889,2.096086,3299,,
2.330,Pg de Santa Eulàlia-Can Caralleu,41.403827,2.115349,330,,
2.3300,Ctra de la Marina-Lo Gaiter del Llobregat,41.329224,2.098503,3300,,
2.3301,Lo Gaiter del Llobregat-Les Moreres,41.331215,2.102024,3301,,
2.3302,Parc Sanitari Pere Virgili,41.415693,2.142003,3302,,
2.3303,Torrent del Rovelló - Camí Fredolic,41.419356,2.096888,3303,,
2.3304,Mandri-Emancipació,41.403767,2.133148,3304,,
2.3305,Riera Blanca-Travessera de Les Corts,41.376801,2.121820,3305,,
2.3307,Accés a l'Aeroport-Aparcament empleats T1,41.291937,2.054060,3307,,
2.3308,La Maquinista,41.438909,2.197882,3308,,
2.3309,Josep Soldevila-Torrent Estadella,41.434116,2.193555,3309,,
2.3310,Josep Soldevila-Onze de Setembre,41.431707,2.195377,3310,,
2.3312,Sant Antoni Maria Claret-Felip II,41.420146,2.186290,3312,,
2.3313,Sant Antoni Maria Claret-Trinxant,41.416811,2.181734,3313,,
2.3314,Còrsega-Bailèn,41.400497,2.164504,3314,,
2.3315,Còrsega-Llúria,41.398877,2.162346,3315,,
2.3316,Dr. Aiguader-Pl. del Gas,41.384523,2.192369,3316,,
2.3317,Jonquera-Taulat,41.400011,2.207521,3317,,
2.3318,Pg. Taulat-Bac de Roda,41.403030,2.210784,3318,,
2.3319,Fòrum,41.410505,2.216299,3319,,
2.3320,Jonquera-Pg. Taulat,41.399851,2.207531,3320,,
2.3322,Pol. Ind. Zona Franca,41.345494,2.142764,3322,,
2.3323,Ildefons Cerdà-Rambla Badal,41.365078,2.135740,3323,,
2.3324,Pl. Països Catalans,41.380611,2.141537,3324,,
2.3325,Ronda de Dalt-Av. J.V.Foix,41.400912,2.114004,3325,,
2.3326,Pas Sota Muralla-Pg. Colom,41.381145,2.182582,3326,,
2.3328,Urquinaona,41.388550,2.172562,3328,,
2.3329,Pas Sota Muralla-Via Laietana,41.380870,2.182746,3329,,
2.3332,Pg. Marítim,41.384924,2.195895,3332,,
2.3333,Pg Santa Eulàlia,41.403784,2.115856,3333,,
2.3334,Carrer núm.6-Carrer A,41.322561,2.131785,3334,,
2.3335,Feliu i Codina-Congrès,41.436074,2.162976,3335,,
2.3336,Sant Ramon de Penyafort-Manuel Fernández Márquez,41.415831,2.219424,3336,,
2.3337,Cristóbal de Moura-Parc del Besòs,41.419809,2.218338,3337,,
2.3338,Cristóbal de Moura-La Catalana,41.422593,2.222062,3338,,
2.334,Av Granvia-Ctra Antiga del Prat,41.347448,2.113360,334,,
2.3340,Av. Pi i Margall-Ricart,41.432709,2.216041,3340,,
2.3341,Mallorca-Nàpols,41.401273,2.172350,3341,,
2.3342,Comtes de Bell Lloc-Viriat,41.380449,2.137426,3342,,
2.3343,Guipúscoa-Rambla Prim,41.422627,2.205765,3343,,
2.3344,Fernando Pessoa,41.442839,2.193044,3344,,
2.3345,Ciutat d'Asunción-Potosí,41.444393,2.199292,3345,,
2.3346,Palomar-Fernando Pessoa,41.442400,2.193332,3346,,
2.3347,Diagonal-Pl Llevant,41.410762,2.217322,3347,,
2.3348,Almirall Cervera,41.378432,2.189691,3348,,
2.3349,Alfons XIII-Santiago,41.434465,2.219089,3349,,
2.335,Gran Capità- Av de l'Exèrcit,41.386981,2.111589,335,,
2.3350,Alfons XIII-Aribau,41.434588,2.219009,3350,,
2.3351,Alfons XIII-Av. del Maresme,41.436504,2.222934,3351,,
2.3352,Alfons XIII-Joan Sebastià Bach,41.436616,2.222820,3352,,
2.3353,Alfons XIII-Sant Lluc,41.439376,2.228341,3353,,
2.3356,Av. de la Platja-Pont d'Eduard Maristany,41.425232,2.230018,3356,,
2.3357,Casp-Nàpols,41.395881,2.179477,3357,,
2.3358,Av d'Esplugues-González Tablas,41.386969,2.105771,3358,,
2.3359,Ctra de la Marina-Av Onze de Setembre,41.322748,2.103523,3359,,
2.336,Balmes-Via Augusta,41.400860,2.147888,336,,
2.3360,Ctra de la Marina-Pg Ciutat de l'Hospitalet,41.324284,2.102166,3360,,
2.3361,Ctra de la Marina-Pablo Neruda,41.325172,2.101439,3361,,
2.3362,Ctra de la Marina-Industries,41.327310,2.099960,3362,,
2.3363,Ctra de la Marina-Av Verge de Montserrat,41.327246,2.099825,3363,,
2.3364,Ctra de la Marina-Catalunya,41.325346,2.101134,3364,,
2.3365,Campoamor-Lloret de Mar,41.434116,2.156058,3365,,
2.3366,Pg. Valldaura-Eduard Toda,41.436691,2.154329,3366,,
2.3367,Porto-Pl. de l'Estatut,41.429707,2.157149,3367,,
2.3368,Av. l'Estatut de Catalunya-Campoamor,41.435120,2.153537,3368,,
2.3369,Sant Antoni Maria Claret-Sardenya,41.406622,2.168156,3369,,
2.337,València-Muntanya,41.411226,2.188089,337,,
2.3370,Marina-Av Diagonal,41.401742,2.178133,3370,,
2.3371,Badajoz-Diagonal,41.403138,2.189593,3371,,
2.3372,Felipe Díaz Sandino-CLASA,41.300992,2.064359,3372,,
2.3373,Pablo Iglesias-Salvador Espriu,41.348672,2.130752,3373,,
2.3374,Av. Joan Carles I-Botànica,41.350908,2.131426,3374,,
2.3375,Ctra de la Marina-Pl de la Constitució,41.324155,2.102096,3375,,
2.3376,Ctra. de la Marina-Mataró,41.322608,2.103457,3376,,
2.3377,Eduard Toldrà-Ardena,41.388535,2.105869,3377,,
2.3378,Sepúlveda-Muntaner,41.383412,2.162684,3378,,
2.3379,Sepúlveda-Comte d'Urgell,41.381749,2.160464,3379,,
2.3380,Sepúlveda-Viladomat,41.379025,2.156852,3380,,
2.3381,Costa i Cuxart-Felip II,41.428128,2.176096,3381,,
2.3382,Espronceda-Ramon Turró,41.402398,2.208413,3382,,
2.3383,Bac de Roda-Taulat,41.403262,2.209743,3383,,
2.3384,Alfons XIII-Juan Valera,41.438101,2.225484,3384,,
2.3385,Parc de la Maquinista,41.435582,2.196345,3385,,
2.3386,Av Cardenal Vidal i Barraquer-Pl Botticelli,41.432762,2.151829,3386,,
2.3387,Berenguer de Palou-Ferran Turné,41.424585,2.191736,3387,,
2.3388,Còrsega-Pg. de Gràcia,41.397099,2.160005,3388,,
2.3389,Estació del Nord,41.394369,2.181817,3389,,
2.3390,Paral·lel-Floridablanca,41.375120,2.154936,3390,,
2.3391,Pg. Sant Joan-Consell de Cent,41.397042,2.172522,3391,,
2.3392,Homer-Escipió,41.408002,2.145065,3392,,
2.3393,Concili de Trento-Pl. de la Pau,41.422445,2.209683,3393,,
2.3394,Les Drassanes-Portal de la Pau,41.375158,2.177430,3394,,
2.3395,Pg. Isabel II-Pla de Palau,41.382680,2.183672,3395,,
2.3396,Pla de Palau-Av. Marquès de l'Argentera,41.383472,2.183816,3396,,
2.3397,Meridiana-Almogàvers,41.394137,2.186762,3397,,
2.3399,Av de la Platja-Av Eduard Maristany,41.425467,2.229548,3399,,
2.34,Av. Icària-Av. Bogatell,41.393025,2.199318,34,,
2.3400,Marina-Av. Meridiana,41.395371,2.186302,3400,,
2.3401,Marina-Almogàvers,41.395203,2.186181,3401,,
2.3402,Av. Meridiana-Almassora,41.452023,2.189206,3402,,
2.3404,Borbó-Serrano,41.429171,2.174280,3404,,
2.3405,Irlanda - Mossèn Jacint Verdaguer,41.448687,2.214587,3405,,
2.3406,Rbla de Sant Sebastià - Irlanda,41.450684,2.212359,3406,,
2.3407,Alfons XIII-Jumella,41.437692,2.225167,3407,,
2.3408,Alumini-Ctra del Prat,41.359120,2.132811,3408,,
2.3409,Alumini-Foc,41.354494,2.136153,3409,,
2.341,Aragó-Metro Clot,41.409179,2.187879,341,,
2.3410,Alumini-Foc,41.354525,2.136312,3410,,
2.3411,Camí de la Font Freda-Girona,41.490567,2.187788,3411,,
2.3412,Camí de la Font Freda-Girona,41.491090,2.188771,3412,,
2.3413,Provença-Larramendi,41.479585,2.188805,3413,,
2.3414,Av. de la Ribera-Larramendi,41.480280,2.189943,3414,,
2.3415,Cardenal Reig-Av. Sant Ramon Nonat,41.378582,2.117132,3415,,
2.3416,Av. Sant Ramon Nonat-Collblanc,41.376238,2.117024,3416,,
2.3417,Ronda Sant Pau-Carrer de les Flors,41.375690,2.167213,3417,,
2.3418,Ronda Sant Pau-Paral·lel,41.375487,2.167489,3418,,
2.3419,Aldana-Ronda Sant Pau,41.375641,2.166136,3419,,
2.342,Cementiri de l'Est,41.394275,2.202388,342,,
2.3420,Sant Adrià-Biosca,41.436612,2.207790,3420,,
2.3422,Vallespir-Pl. del Centre,41.381977,2.135296,3422,,
2.3423,Av Rio de Janeiro-Cementiri de Sant Andreu,41.436821,2.180517,3423,,
2.3424,Muntaner-Bisbe Sivilla,41.404463,2.135984,3424,,
2.3425,Mandri-Mitre,41.401783,2.135551,3425,,
2.3426,Viladomat-Av.Roma,41.384434,2.150906,3426,,
2.3427,Pg Sant Gervasi-Pl John F Kennedy,41.409981,2.136384,3427,,
2.3428,Major-Riera d'en Nofre,41.368857,2.052875,3428,,
2.3429,Ctra. BV 2001-Benzinera,41.370590,2.050412,3429,,
2.343,Pl de Sant Jordi,41.366328,2.144752,343,,
2.3430,Ctra. BV 2001-Onze de Setembre,41.374443,2.046264,3430,,
2.3431,Onze de Setembre-Pg. del Canal,41.375993,2.048056,3431,,
2.3432,Ctra. BV 2001-Onze de Setembre,41.374375,2.046171,3432,,
2.3433,Ctra. BV 2001-Benzinera,41.370569,2.050316,3433,,
2.3434,Major-Creu d'en Muntaner,41.368755,2.052854,3434,,
2.3435,Av. Sant Ildefons-Av. República Argentina,41.363594,2.083662,3435,,
2.3436,Av. Cardenal Vidal i Barraquer-Berruguete,41.432923,2.151784,3436,,
2.3438,Manso-Rocafort,41.375566,2.159035,3438,,
2.3439,Benedetti-Iradier,41.407827,2.122486,3439,,
2.344,Piscines Picornell-Museu Nacional,41.366087,2.153154,344,,
2.3441,Lleida-Coronel Sanfeliu,41.322428,2.095754,3441,,
2.3443,Gombau-Jaume Giralt,41.387183,2.179344,3443,,
2.3445,Cementiri de l'Est-Carmen Amaya,41.394136,2.201957,3445,,
2.3446,Av. Pompeu Fabra-Ramiro de Maeztu,41.414466,2.158532,3446,,
2.3447,Riera Can Toda-Antequera,41.414084,2.157609,3447,,
2.3448,Riera Can Toda-Miquel i Badia,41.413098,2.158743,3448,,
2.3449,Comte d'Urgell-Mercat del Ninot,41.386225,2.153286,3449,,
2.345,Av. de l'Estadi-Estadi Olímpic,41.366002,2.154544,345,,
2.3450,Comte d'Urgell-Hospital Clínic,41.388828,2.149828,3450,,
2.3451,Ciutat de Granada-Diagonal,41.403847,2.190793,3451,,
2.3452,Pg. Sant Gervasi-Balmes,41.409935,2.136141,3452,,
2.3453,Av. Tibidabo-Mas Yebra,41.411310,2.136338,3453,,
2.3454,Bilbao-Perú,41.407906,2.196606,3454,,
2.346,Estadi Olímpic,41.366164,2.155317,346,,
2.3460,Castelldefels-Llerona,41.459713,2.181618,3460,,
2.347,Piscines Picornell-Museu Nacional,41.366539,2.151718,347,,
2.348,Av Estadi-INEFC,41.365641,2.147886,348,,
2.349,Av Estadi-INEFC,41.365530,2.146807,349,,
2.350,Av de Vallcarca-Baixada de la Glòria,41.410385,2.147010,350,,
2.352,Av de Sant Ildefons-Cirerer,41.365512,2.083071,352,,
2.353,Av del Parc-Pl Catalunya,41.359655,2.077241,353,,
2.354,Av del Parc-Ptge de Les Delícies,41.359391,2.074945,354,,
2.355,Av del Parc-Mossèn Joaquim Palet,41.359194,2.072941,355,,
2.357,Av.dels Alps-Tanatori,41.355071,2.077786,357,,
2.358,Av dels Alps-Ctra d'Esplugues,41.356433,2.073255,358,,
2.36,Metro Marina,41.394153,2.187545,36,,
2.360,Sant Adrià-Formiga,41.435793,2.201628,360,,
2.362,Av Meridiana-Escòcia,41.429143,2.183648,362,,
2.363,Felip II-Pl del Congrés,41.425887,2.179847,363,,
2.364,Felip II-Arnau d'Oms,41.427247,2.178064,364,,
2.365,Lletres-Dante Alighieri,41.427936,2.157915,365,,
2.366,Pl de l'Estatut,41.430511,2.155255,366,,
2.369,Pi i Margall-Escorial,41.406654,2.163165,369,,
2.370,Pg Maragall-Greco,41.426768,2.171691,370,,
2.371,Pg Maragall-Sabastida,41.427479,2.168463,371,,
2.372,Av Catalunya-Àngel Guimerà,41.496029,2.183353,372,,
2.373,Diagonal-Entença,41.390536,2.137183,373,,
2.374,Ctra d'Horta-Pg de Valldaura,41.437274,2.153559,374,,
2.375,Josep Tarradellas-Gelabert,41.388256,2.142832,375,,
2.376,Les Corts-Pl Dr Ignasi Barraquer,41.390115,2.140635,376,,
2.377,Paral·lel-Rocafort,41.375108,2.159400,377,,
2.378,Av. de Roma-Entença,41.382013,2.146274,378,,
2.38,Marina-Ctra de Ribes,41.397584,2.183099,38,,
2.380,València-Entença,41.381048,2.147948,380,,
2.381,Clot-Biscaia,41.413988,2.190631,381,,
2.382,Pujades - Espronceda,41.405584,2.205703,382,,
2.383,Gran Via-Espronceda,41.411677,2.197643,383,,
2.385,Gran Via-Bilbao,41.409045,2.194762,385,,
2.387,Clot-Pont de Bac de Roda,41.414917,2.190514,387,,
2.388,Saldes,41.428945,2.134501,388,,
2.389,Pl Espanya-FGC,41.374291,2.148575,389,,
2.39,Pg de Sant Joan-Alí-Bei,41.392496,2.178935,39,,
2.390,Tarragona-Pl Espanya,41.375920,2.148445,390,,
2.391,Metro Hostafrancs,41.375153,2.144895,391,,
2.392,Creu Coberta-Pl. Espanya,41.375102,2.147507,392,,
2.393,Av Reina Maria Cristina-Pl Espanya,41.373857,2.150082,393,,
2.394,Tarragona-Pl. Espanya,41.375706,2.148726,394,,
2.395,Marquès de Sentmenat-Equador,41.385421,2.141561,395,,
2.396,Berlín-Numància,41.383507,2.139746,396,,
2.397,Josep Tarradellas-Berlín,41.384864,2.142339,397,,
2.398,Guipúscoa-Julián Besteiro,41.416481,2.197570,398,,
2.399,Llull-Selva de Mar,41.407024,2.210207,399,,
2.4,Mallorca-Balmes,41.391021,2.158732,4,,
2.400,Centre Mèdic Delfos,41.413423,2.142903,400,,
2.402,Dante Alighieri - Santa Joana d'Arc,41.427878,2.158823,402,,
2.406,Pg. Valldaura-Rambla Caçador,41.438630,2.173479,406,,
2.407,Av Indústria-Carretera Reial,41.380429,2.066954,407,,
2.408,Av Indústria-Salvador Espriu,41.381567,2.068519,408,,
2.409,Sagrera-Parc de la Pegaso,41.426317,2.190916,409,,
2.41,Diagonal-Doctor Fleming,41.390710,2.136322,41,,
2.410,Pl Eivissa-Horta,41.430482,2.161101,410,,
2.411,Tajo-Metro Horta,41.429541,2.160865,411,,
2.412,Carles III-Les Corts,41.381833,2.128008,412,,
2.413,Av. Litoral-Trelawny,41.386258,2.194843,413,,
2.42,Diagonal-L'Illa Diagonal,41.389572,2.133391,42,,
2.420,Can Clos,41.360712,2.147294,420,,
2.421,Gran Via-Farell,41.371993,2.144950,421,,
2.422,Via Sant Antoni Abat,41.356560,2.150945,422,,
2.423,Gran Vista-Turó de la Rovira,41.420212,2.164008,423,,
2.424,Garriga i Roca-Camil Oliveras,41.421236,2.169714,424,,
2.425,Montserrat de Casanovas-Parc del Guinardó,41.423177,2.169516,425,,
2.426,Montserrat de Casanovas-Ptge Pedrell,41.424000,2.167981,426,,
2.427,Pedrell-Canonge Almera,41.423884,2.162029,427,,
2.428,Pg. Valldaura-Fabra i Puig,41.439202,2.165761,428,,
2.43,Pg. Zona Franca-Foneria,41.360039,2.138925,43,,
2.430,Parc Turó de la Peira,41.433576,2.163193,430,,
2.431,Av Meridiana-Dublín,41.427451,2.185150,431,,
2.432,Av Meridiana-Parc de Can Dragó,41.435630,2.183798,432,,
2.435,Arenys-Rossell,41.422760,2.145477,435,,
2.436,Arenys-Fastenrath,41.422048,2.143006,436,,
2.437,Pl del Nen de la Rutlla,41.418580,2.171943,437,,
2.44,Pg. Zona Franca-Alts Forns,41.358062,2.140690,44,,
2.440,Via Júlia-Sant Francesc Xavier,41.441594,2.177585,440,,
2.441,Gran Vista-Pl. de la Mitja Lluna,41.420126,2.164919,441,,
2.442,Comte d'Urgell-Floridablanca,41.380886,2.160363,442,,
2.444,Entença-Floridablanca,41.375650,2.155956,444,,
2.445,Pedrell-Ptge Gabarnet,41.423111,2.158690,445,,
2.446,Montserrat de Casanovas-Pg Font d'En Fargas,41.423711,2.164955,446,,
2.447,Verge de Montserrat-França,41.414830,2.164891,447,,
2.449,Pg. Zona Franca-Ctra del Prat,41.362070,2.137450,449,,
2.450,Pg. Zona Franca-Foneria,41.359573,2.139622,450,,
2.453,Via Barcino-Foradada,41.452811,2.193779,453,,
2.454,Sagrera-Martí Molins,41.423025,2.191082,454,,
2.455,Meridiana-La Sagrera,41.421937,2.186760,455,,
2.458,Pl Pius XII,41.386964,2.121553,458,,
2.459,Verge de Montserrat-Gènova,41.416499,2.170129,459,,
2.460,Verge de Montserrat-Francesc Alegre,41.415726,2.167730,460,,
2.464,Gran Via-Bac de Roda,41.411085,2.197428,464,,
2.466,Gran Via-Pl dels Porxos,41.413905,2.200618,466,,
2.469,Rambla Prim-Ferrer Bassa,41.415112,2.214694,469,,
2.47,Parc Sanitari Pere Virgili,41.416267,2.141929,47,,
2.470,Jacint Verdaguer-Estudis TV3,41.373479,2.068662,470,,
2.471,Aiguablava-Via Favència,41.447098,2.180495,471,,
2.472,Pl Europa,41.357419,2.126404,472,,
2.476,Rambla del Carmel,41.426037,2.158313,476,,
2.477,Rambla del Carmel-Dante Alighieri,41.427200,2.157241,477,,
2.478,Av de Vallcarca-Centre Mèdic Delfos,41.414010,2.143119,478,,
2.479,Av. Madrid-Carles III,41.378931,2.128468,479,,
2.48,Palau d'Esports de la Vall d'Hebron,41.427920,2.144165,48,,
2.481,Maria Cristina-Carles III,41.389326,2.128028,481,,
2.482,Les Corts-Maternitat,41.381215,2.126648,482,,
2.483,Diagonal-Numància,41.389513,2.131617,483,,
2.484,Les Corts-Vallespir,41.385515,2.132725,484,,
2.485,Mercat de Les Corts,41.383691,2.129908,485,,
2.487,Mitre-Prat de la Riba,41.393274,2.131301,487,,
2.488,Pl. del Centre,41.381993,2.135728,488,,
2.491,Diagonal-Joan Güell,41.388026,2.128122,491,,
2.492,Diagonal-Av Joan XXIII,41.386932,2.122985,492,,
2.493,Diagonal-Gran Via Carles III,41.387589,2.125577,493,,
2.494,Diagonal-Gandesa,41.388443,2.128934,494,,
2.495,Verge de Montserrat-Cartagena,41.416051,2.169892,495,,
2.496,Pg Torras i Bages-Residència,41.439415,2.190909,496,,
2.497,Alcántara-Garigliano,41.445521,2.172430,497,,
2.499,Gran Via-Padilla,41.400301,2.182905,499,,
2.5,Universitat Central,41.387065,2.164855,5,,
2.501,Colònia Tibidabo,41.420798,2.119336,501,,
2.502,Diagonal-Girona,41.398164,2.166346,502,,
2.503,Metro Tetuan,41.393762,2.173666,503,,
2.504,Mallorca-Girona,41.398062,2.168071,504,,
2.505,Travessera de Dalt-La Granja,41.409088,2.154225,505,,
2.506,Biscaia-Ctra de Mataró,41.423547,2.210998,506,,
2.507,Rambla Prim-Concili de Trento,41.421988,2.205623,507,,
2.508,Pl. dels Indians,41.423560,2.182623,508,,
2.509,Pl. dels Indians,41.423600,2.182839,509,,
2.51,Sant Genís dels Agudells-Arquitectura,41.429384,2.138266,51,,
2.510,Meridiana-La Sagrera,41.421402,2.187090,510,,
2.511,Av Meridiana-Cardenal Tedeschini,41.425020,2.186341,511,,
2.512,Av de Sarrià-Mestre Villa,41.392216,2.132932,512,,
2.515,Balmes-Pàdua,41.403050,2.143959,515,,
2.516,Carles III-Numància,41.391686,2.129244,516,,
2.517,Balmes-Pl. John F. Kennedy,41.409236,2.137263,517,,
2.519,Balmes-Pl Joaquim Folguera,41.405440,2.139226,519,,
2.52,Pg. Vall d'Hebron-Metro Montbau,41.430145,2.144497,52,,
2.520,Av de Sarrià-Diagonal,41.391592,2.136995,520,,
2.522,Via Augusta-Pl Orient,41.397684,2.128363,522,,
2.523,Via Augusta-Tres Torres,41.397691,2.130753,523,,
2.524,Diagonal-Ganduxer,41.391650,2.140023,524,,
2.525,Via Augusta-Modolell,41.397855,2.136675,525,,
2.526,Ganduxer-Alacant,41.400186,2.133574,526,,
2.527,Ganduxer-Emancipació,41.403153,2.131277,527,,
2.528,Via Augusta-Ronda General Mitre,41.397699,2.133682,528,,
2.529,Mitre-Mandri,41.400650,2.135367,529,,
2.531,Pg Bonanova-Anglí,41.400977,2.123447,531,,
2.532,Pg Bonanova-Escoles Pies,41.403366,2.127723,532,,
2.533,Av de Vallcarca-Gomis,41.411882,2.144400,533,,
2.534,Pl Alfonso Comín-Av República Argentina,41.414496,2.138262,534,,
2.536,Av Barcelona-Mare de Déu de Montserrat,41.368082,2.067861,536,,
2.537,Av Barcelona-Gran Capità,41.368239,2.068407,537,,
2.54,Comte d'Urgell-Aragó,41.384259,2.155885,54,,
2.540,Gran Via-Cantàbria,41.415968,2.203370,540,,
2.541,Guipúscoa-Treball,41.418160,2.199804,541,,
2.542,Guipúscoa-Cantàbria,41.420063,2.201754,542,,
2.543,Almogàvers-Ciutat de Granada,41.401240,2.195483,543,,
2.544,Gran Vista-Doctor Bové,41.419004,2.158039,544,,
2.545,Gran Vista-IES Ferran Tallada,41.420791,2.161667,545,,
2.546,IES Ferran Tallada,41.420692,2.161841,546,,
2.547,Metro Zona Universitària,41.384729,2.111443,547,,
2.548,Zona Universitària-Escola A E Empresarials,41.384695,2.111024,548,,
2.549,Av d'Esplugues-Av Pearson,41.392138,2.111625,549,,
2.55,Pg de Gràcia-Aragó,41.391800,2.165503,55,,
2.550,Av d'Esplugues-Dr Joaquim Albarrán,41.389940,2.109029,550,,
2.552,Av d'Esplugues-Eduard Toldrà,41.387905,2.106562,552,,
2.554,Sor Eulàlia d' Anzizu-González Tablas,41.387035,2.108666,554,,
2.555,Sor Eulàlia d'Anzizu-Carreras,41.388352,2.110064,555,,
2.556,Zona Universitària,41.384595,2.110914,556,,
2.557,Lesseps-Av. Príncep d'Asturies,41.406122,2.149788,557,,
2.559,Pl Molina,41.401407,2.147377,559,,
2.56,Casanova-Consell de Cent,41.386039,2.158017,56,,
2.560,Villarroel-Gran Via,41.383290,2.159201,560,,
2.561,Pg de Gràcia-Casp,41.388912,2.169251,561,,
2.562,Balmes-Gran Via,41.387613,2.164736,562,,
2.564,Muntaner-Diputació,41.386140,2.159951,564,,
2.565,Rambla de Prim-Gran Via,41.418948,2.209670,565,,
2.567,Bilbao-Andrade,41.410073,2.193691,567,,
2.569,Extremadura-Empordà,41.423843,2.210281,569,,
2.570,Lepant-Plaça de Toros Monumental,41.400444,2.181824,570,,
2.571,Sant Pere d'Abanto-Moianès,41.371723,2.142975,571,,
2.572,Besòs-Verneda,41.422294,2.210391,572,,
2.574,Rambla de Prim-Andrade,41.420010,2.207257,574,,
2.576,Roger de Flor-Gran Via,41.395240,2.177435,576,,
2.577,Metro Pg de Gràcia,41.389919,2.167520,577,,
2.578,Bac de Roda-Perú,41.410711,2.199885,578,,
2.58,Aribau-Aragó,41.387695,2.160348,58,,
2.581,Rambla Marina - Merca 2,41.349912,2.111210,581,,
2.582,Ronda de Llevant-Lo Gaiter del Llobregat,41.332885,2.103976,582,,
2.584,Metro Pl. de Sants,41.375312,2.136810,584,,
2.585,Av Remolar-Riu Guadalquivir,41.318123,2.091444,585,,
2.586,Pg. Valldaura-Mercat de la Guineueta,41.439012,2.169728,586,,
2.588,Sant Adrià-Bon Pastor,41.436527,2.208297,588,,
2.589,Lima-Sas,41.439208,2.204819,589,,
2.59,Entença-Consell de Cent,41.380083,2.150088,59,,
2.590,Laureà Miró-Sant Llorenç,41.377090,2.092859,590,,
2.591,Av d'Esplugues-Hospital Sant Joan de Déu,41.384924,2.103973,591,,
2.592,Laureà Miró-Josep Campreciós,41.377485,2.086646,592,,
2.594,Av Catalunya-Puigcerdà,41.495993,2.183456,594,,
2.597,Ctra de L'Hospitalet-Av Fama,41.353702,2.079428,597,,
2.598,Ctra de L'Hospitalet-Parc de Can Mercader,41.355783,2.084528,598,,
2.6,Pl Universitat-Balmes,41.386942,2.164698,6,,
2.60,Llúria-Aragó,41.393898,2.167925,60,,
2.603,Lima-Ciutat d' Asunción,41.439198,2.200792,603,,
2.604,Pi i Margall-Pl Joanic,41.406378,2.163343,604,,
2.605,Pg. Vall d'Hebron-Av. de Vallcarca,41.419343,2.139821,605,,
2.607,Pg Vall d'Hebron-Velòdrom,41.437190,2.149735,607,,
2.608,Av Anselm Clavé-Enric Borràs,41.332804,2.097667,608,,
2.609,Rubió i Ors-Sant Isidre,41.352435,2.073082,609,,
2.61,Independència-Consell de Cent,41.406346,2.185374,61,,
2.610,Santaló-Plató,41.399791,2.140717,610,,
2.611,Pl d'Adrià,41.400995,2.139240,611,,
2.612,Muntaner-Pl Bonanova,41.405851,2.134061,612,,
2.613,Muntaner-Mitre,41.403055,2.137540,613,,
2.614,Pg Vall d'Hebron-Av Can Marcet,41.435625,2.148345,614,,
2.615,Campoamor-Av Estatut de Catalunya,41.435131,2.154373,615,,
2.616,Campoamor-Rectoria,41.432919,2.158051,616,,
2.618,Cantàbria-Pl del Ram de l'Aigua,41.420010,2.201162,618,,
2.619,Cantàbria-Menorca,41.421035,2.199372,619,,
2.62,Dos de Maig-València,41.406567,2.182588,62,,
2.621,Bac de Roda-Rambla de Guipúscoa,41.414991,2.194212,621,,
2.622,Pg Bonanova,41.399968,2.123345,622,,
2.623,Palamós-Sa Tuna,41.451491,2.187607,623,,
2.624,Palamós-Sa Tuna,41.451128,2.187399,624,,
2.626,Verge de Montserrat-La Bisbal,41.417988,2.171696,626,,
2.627,Londres-Calàbria,41.388473,2.144036,627,,
2.628,Berlín-Josep Tarradellas,41.384995,2.141957,628,,
2.629,Numància-Berlín,41.382759,2.139451,629,,
2.63,Pg de Sant Joan-Aragó,41.397386,2.172391,63,,
2.630,Av de Sarrià-Josep Tarradellas,41.390403,2.144807,630,,
2.632,Fructuós Gelabert-Sant Martí de l'Erm,41.372779,2.067427,632,,
2.633,Pg de Sant Joan-Indústria,41.402752,2.164760,633,,
2.634,Lepant-Sant Antoni Maria Claret,41.408205,2.171570,634,,
2.635,Dos de Maig-St Antoni M Claret,41.411570,2.175979,635,,
2.638,"Av de la Ribera-""Mercat Municipal""",41.484988,2.190971,638,,
2.639,Av Mossèn Joaquim Castellví-Rbla Països Catalans,41.487510,2.188300,639,,
2.64,Montserrat Roig-Lleó Fontova,41.362739,2.061806,64,,
2.640,Rambla dels Països Catalans-Torras i Bages,41.489369,2.186709,640,,
2.641,Gran de Sant Andreu-Fabra i Puig,41.429289,2.190011,641,,
2.642,La Miranda-Pl Catalunya,41.360020,2.078232,642,,
2.643,Ctra d'Esplugues-Les Garrigues,41.367586,2.079059,643,,
2.644,Av de Cornellà-Milà i Pí,41.371856,2.082928,644,,
2.645,Av de Cornellà-Gall,41.369715,2.080805,645,,
2.647,Rambla Marina-Av Granvia,41.349755,2.111914,647,,
2.648,Rambla Marina-Polígon de Bellvitge,41.352532,2.109417,648,,
2.649,Pg Maragall-Mossèn Josep  Bundó,41.427385,2.168007,649,,
2.65,Josep Tarradellas-Francesc Macià,41.391603,2.143749,65,,
2.650,Pl Catalana-Mascaró,41.421847,2.173151,650,,
2.651,Mercat Mare de Déu de la Mercè,41.430276,2.173212,651,,
2.652,Pg Maragall-Amílcar,41.426497,2.172102,652,,
2.654,Av Miramar-Fundació Joan Miró,41.367770,2.159774,654,,
2.655,Av Miramar-Estació del Funicular,41.368876,2.162943,655,,
2.656,Av Miramar-Escoles del Bosc,41.368937,2.161944,656,,
2.657,Fundació Joan Miró-Pl Neptú,41.367861,2.159631,657,,
2.659,Ctra d'Esplugues-Joan Maragall,41.355990,2.071336,659,,
2.661,Aragó-Independència,41.407251,2.184862,661,,
2.662,Marina-Pl. dels Voluntaris,41.388373,2.195587,662,,
2.663,Av Banús Baixa-Av Generalitat,41.444720,2.210815,663,,
2.666,Av Banús Baixa-Camprodon,41.446324,2.214053,666,,
2.667,Via Laietana-Correus,41.382449,2.180610,667,,
2.669,Bucle Entrada Recinte Cementiri,41.466226,2.156184,669,,
2.670,Agrupació número 1.2-Jardí del Repós,41.460527,2.158058,670,,
2.671,Agrupacións números 8 i 14,41.458418,2.162563,671,,
2.673,Agrupació número 12·13-Fossar,41.459294,2.162849,673,,
2.674,Agrupació número 14·15,41.460036,2.161238,674,,
2.675,Agrupació número 15,41.460617,2.159490,675,,
2.676,Agrupació número 16 entrada,41.462296,2.158923,676,,
2.678,Agrupació número 16 sortida,41.462329,2.158825,678,,
2.679,Agrupació número 15-Columbaris,41.461480,2.158026,679,,
2.680,Bucle Sortida Recinte Cementiri,41.466161,2.156024,680,,
2.681,Av Jordà-Idumea,41.426647,2.138919,681,,
2.682,Cementiri de l'Est,41.394427,2.201577,682,,
2.683,Natzaret-Lledoner,41.425867,2.136233,683,,
2.684,Pl Sant Agustí,41.357840,2.155914,684,,
2.685,Via Santa Eulàlia-Rda Litoral,41.353046,2.154313,685,,
2.686,Pl de l'Esperança,41.353856,2.156254,686,,
2.687,Pl de la Caritat,41.355387,2.155375,687,,
2.688,Pl Sant Rafael,41.355068,2.153848,688,,
2.689,Pl Sant Francesc,41.356288,2.157677,689,,
2.69,Pg. Sant Gervasi-Mas Yebra,41.412101,2.138190,69,,
2.690,Via Sant Jordi-Via Sant Sever,41.355205,2.157267,690,,
2.691,Via Sant Jaume-Via Santíssima Trinitat,41.356268,2.154740,691,,
2.692,Via Santíssima Trinitat,41.356014,2.151737,692,,
2.693,Via Santíssima Trinitat-Pl Sant Agustí,41.356770,2.153971,693,,
2.694,Via Sant Antoni Abat-Via Santíssima Trinitat,41.355557,2.151379,694,,
2.695,Via Sant Jaume,41.356062,2.154188,695,,
2.696,Via Sant Francesc,41.354755,2.153621,696,,
2.697,Pallars-Joan d'Àustria,41.395401,2.190132,697,,
2.698,Av Icària-Joan Miró,41.390423,2.196311,698,,
2.699,Benet i Mateu-Manuel de Falla,41.393853,2.126240,699,,
2.7,Pl Universitat,41.385907,2.163310,7,,
2.70,Terré-Pl de Benet XV,41.406002,2.120596,70,,
2.700,Pg Calvell-Rambla del Poblenou,41.397447,2.206519,700,,
2.701,Els Vergós,41.397296,2.127341,701,,
2.702,Pl Artós,41.395547,2.125619,702,,
2.703,Ronda Sant Antoni-Pl Goya,41.383044,2.163775,703,,
2.704,Parc de la Vall d'Hebron,41.431312,2.145728,704,,
2.705,Meridiana-Josep Estivill,41.416295,2.187072,705,,
2.707,Sants-Badal,41.375418,2.131880,707,,
2.708,Pl de Sants,41.375368,2.134317,708,,
2.709,Les Corts-Carles III,41.382732,2.128836,709,,
2.71,Ronda de Dalt-Bellesguard,41.410479,2.126513,71,,
2.711,Av. Pedralbes-Pg dels Til·lers,41.391406,2.117128,711,,
2.712,Av de l'Exèrcit-Trias i Giró,41.385674,2.111180,712,,
2.713,CAP Vallcarca,41.415485,2.142255,713,,
2.716,Gran Via-Monturiol,41.409605,2.194869,716,,
2.717,Gran Via-Selva de Mar,41.413669,2.200884,717,,
2.719,Pg de Josep Carner-Jardins de Walter Benjamin,41.373072,2.175363,719,,
2.721,Pg de Josep Carner-Pg de Montjuïc,41.371453,2.174319,721,,
2.722,Paral·lel-Cabanes,41.374794,2.170635,722,,
2.723,Paral·lel-Drassanes,41.374513,2.174799,723,,
2.725,Mina de la Ciutat-Les Torres,41.446921,2.173469,725,,
2.727,Lisboa-Porto,41.429139,2.157599,727,,
2.728,Balmes-Pereda,41.431146,2.207740,728,,
2.729,Balmes-Alarcón,41.429628,2.210868,729,,
2.73,Josep Garí-Collserola,41.415725,2.135586,73,,
2.731,PgTorras i Bages-Els Segadors,41.436976,2.191278,731,,
2.732,Av Jordà-Judea,41.425160,2.140704,732,,
2.733,Av Jordà-Nínive,41.426617,2.138543,733,,
2.734,Av Jordà-Natzaret,41.427023,2.136988,734,,
2.735,Bruc-Mossèn Cinto Verdaguer,41.448856,2.217872,735,,
2.736,Pl de la Llibertat-Bus 57,41.353720,2.075151,736,,
2.737,Pl de la Llibertat-Bus 68,41.353776,2.075367,737,,
2.738,Pl de la Llibertat-Bus 67,41.353622,2.075142,738,,
2.74,Benedetti-Ronda de Dalt,41.408844,2.124256,74,,
2.742,Av de la Ribera-Pg Rocamora,41.484815,2.190839,742,,
2.743,Carbonell-Pg Jaume I,41.482027,2.188942,743,,
2.744,Felip II-Av Meridiana,41.421117,2.186077,744,,
2.745,Manuel Bertrand-Maurici Vilomara,41.330287,2.095759,745,,
2.747,Av Catalunya-Sol,41.493747,2.182104,747,,
2.748,Av de Cornellà-Pl Sardana,41.372770,2.084174,748,,
2.749,Santa Rosalia-Castellbisbal,41.420754,2.143730,749,,
2.752,Aiguablava-Pedrosa,41.448923,2.182143,752,,
2.753,Aiguablava-La Fosca,41.448396,2.181763,753,,
2.754,Pg. Vall d'Hebron-L'Arrabassada,41.418623,2.139062,754,,
2.755,Pg. Valldaura-Guineueta,41.439437,2.165384,755,,
2.760,Badal-Av. Carrilet,41.366617,2.134608,760,,
2.761,Av d'Esplugues-González Tablas,41.387484,2.106661,761,,
2.762,Av d'Esplugues,41.389896,2.109146,762,,
2.763,Av d'Esplugues-Av Pearson,41.393320,2.112004,763,,
2.764,Bisbe Català-Pl de Pedralbes,41.396148,2.114438,764,,
2.765,Pl Pius XII,41.387796,2.122168,765,,
2.766,Diagonal-Pl Pius XII,41.387238,2.122615,766,,
2.768,Grècia-Pl del Nen de la Rutlla,41.419113,2.171447,768,,
2.769,Via Favència-Rambla Caçador,41.441477,2.167094,769,,
2.770,Paral·lel-Margarit,41.374866,2.164506,770,,
2.771,Laureà Miró-Molí,41.376621,2.096478,771,,
2.772,Doctor Pi i Molist-Pl Virrei Amat,41.430841,2.174620,772,,
2.773,Doctor Pi i Molist-Ptge Ricard Canals,41.432698,2.173466,773,,
2.774,Gran Via-Vilamarí,41.377417,2.151919,774,,
2.776,Sepúlveda-Av. Mistral,41.375683,2.152409,776,,
2.777,Av. Roma-Tarragona,41.380472,2.143614,777,,
2.778,Av Sant Ramon Nonat-Cardenal Reig,41.377671,2.116328,778,,
2.780,Trafalgar-Bruc,41.389715,2.177001,780,,
2.783,Sant Antoni Maria Claret-Lepant,41.408312,2.170400,783,,
2.784,València-Lepant,41.403208,2.177417,784,,
2.787,Escorial-Legalitat,41.407944,2.160791,787,,
2.788,Pl Espanya-Paral·lel,41.374905,2.150598,788,,
2.789,Pg de l'Exposició-Santa Madrona,41.370518,2.158591,789,,
2.79,Aeroport-Terminal T2 AB,41.302888,2.075958,79,,
2.791,Ctra Nacional 152-Pl Espanya,41.490737,2.184059,791,,
2.793,Rambla del Carmel,41.425750,2.157562,793,,
2.794,Pere IV-Bilbao,41.403962,2.198554,794,,
2.795,Gran Via-Llacuna,41.406343,2.191204,795,,
2.796,Gran Via-Parc del Clot,41.407353,2.191779,796,,
2.797,Costa Pacheco-Font del Roure,41.428406,2.129634,797,,
2.8,Pl de Carles Buïgas,41.371045,2.150118,8,,
2.80,Aeroport-Terminal T2 B,41.304226,2.079542,80,,
2.800,Natzaret-Cànoves,41.427013,2.135451,800,,
2.803,Pg de Verdum-Pl Jardins de l'Alfàbia,41.437503,2.174098,803,,
2.804,Vía Júlia-Pl Llucmajor,41.439271,2.175207,804,,
2.805,Pg Valldaura-Font d'En Canyelles,41.439035,2.179162,805,,
2.806,Mercat de la Guineueta,41.438792,2.170001,806,,
2.807,Pg. Valldaura-Pg. de Verdum,41.438433,2.173499,807,,
2.808,Via Júlia-Batllori,41.443578,2.178326,808,,
2.809,Via Júlia-Font d'en Canyelles,41.441062,2.176818,809,,
2.81,Aeroport-Terminal T2 C,41.305037,2.081908,81,,
2.810,Via Júlia-Ptge Quintana,41.445000,2.178941,810,,
2.811,Góngora-Artesania,41.442101,2.173272,811,,
2.812,Góngora-Almansa,41.443007,2.174616,812,,
2.813,Via Favència-Almansa,41.444883,2.174626,813,,
2.814,Villarroel-Buenos Aires,41.392053,2.147597,814,,
2.816,Calàbria-París,41.387780,2.144400,816,,
2.817,Via Favència-Centre Cívic,41.445853,2.177482,817,,
2.818,Pg Valldaura-Lluc,41.438895,2.179271,818,,
2.819,Pg de Verdum-Pl Llucmajor,41.437754,2.174058,819,,
2.82,Platja d'Aro-Palamós,41.448834,2.186443,82,,
2.820,Metro Maragall,41.424518,2.176125,820,,
2.821,Riu Llobregat-Pl Antoni Martín i Sánchez,41.316931,2.085151,821,,
2.822,Diagonal-Av de Sarrià,41.391332,2.140310,822,,
2.823,Verge de Montserrat-Periodistes,41.421681,2.174120,823,,
2.824,Alt de Pedrell-Aguilar,41.425645,2.168777,824,,
2.825,Alt de Pedrell-Palautordera,41.426012,2.169578,825,,
2.826,Arc de Sant Martí-Camil Oliveras,41.423724,2.171801,826,,
2.827,Llull-Bilbao,41.401985,2.203556,827,,
2.828,Guipúscoa-Bilbao,41.412351,2.192044,828,,
2.829,Pere IV-Roc Boronat,41.400743,2.196149,829,,
2.83,Via Favència-Aiguablava,41.446461,2.180560,83,,
2.830,Llull-Ciutat de Granada,41.398485,2.198913,830,,
2.831,Collblanc-Rosich,41.375760,2.114648,831,,
2.835,Pujades-Àlaba,41.396150,2.193287,835,,
2.838,Pg Llorenç Serra-Av Francesc Macià,41.450458,2.205178,838,,
2.839,Bruc-Provença,41.397189,2.165626,839,,
2.84,Av Santa Coloma-Francesc Moragas,41.448185,2.207882,84,,
2.840,Marina-València,41.403073,2.176394,840,,
2.841,Llúria-Mallorca,41.395576,2.165706,841,,
2.842,Aribau-Mallorca,41.389687,2.157710,842,,
2.843,Mercabarna,41.331174,2.115545,843,,
2.844,Carrer número 6-Carrer F,41.324991,2.118123,844,,
2.845,Pg Mare de Déu del Coll-Ramon Rocafull,41.424836,2.152115,845,,
2.847,Vallcarca,41.413293,2.144829,847,,
2.848,Mare de Déu del Coll-Cartago,41.415551,2.146632,848,,
2.849,Mare de Déu del Coll-Baixada Sant Marià,41.417832,2.147739,849,,
2.85,Av Santa Coloma-Mossèn Jacint Verdaguer,41.445019,2.209515,85,,
2.850,Mare de Déu del Coll-Santuari,41.420148,2.149116,850,,
2.851,Mare de Déu del Coll-Santuari,41.420074,2.148918,851,,
2.852,Mare de Déu del Coll-Baixada Solanell,41.417603,2.147553,852,,
2.853,Mare de Déu del Coll-Pl. Flandes,41.415437,2.146197,853,,
2.854,Riera Blanca-Onze de Setembre,41.377321,2.121455,854,,
2.855,Vallespir-Jardí de les Infantes,41.383907,2.133990,855,,
2.856,Arizala-Av Madrid,41.376424,2.125104,856,,
2.857,Rambla del Brasil-Miquel Àngel,41.377325,2.130095,857,,
2.858,Carles III-Av. Madrid,41.379788,2.128729,858,,
2.859,Sant Antoni Maria Claret-Rambla Volart,41.415269,2.179668,859,,
2.861,Pl Maragall-Navas de Tolosa,41.419794,2.181377,861,,
2.863,Jaume Puigvert-Josep Millan Gonzalez,41.416023,2.159963,863,,
2.864,Doctor Ferran-Manuel Girona,41.390328,2.124042,864,,
2.865,Doctor Ferran-Doctor August Pi i Sunyer,41.390477,2.123836,865,,
2.866,Capità Arenas-Pg Manuel Girona,41.390835,2.125777,866,,
2.867,Pg. Zona Franca-Mineria,41.362303,2.137640,867,,
2.868,La Campana,41.367507,2.139298,868,,
2.871,Mallorca-Meridiana,41.412524,2.187359,871,,
2.872,Estació d'Autobusos Fabra i Puig,41.431628,2.183254,872,,
2.873,Fabra i Puig-Neopàtria,41.430213,2.188359,873,,
2.874,Fabra i Puig-Llenguadoc,41.430251,2.185483,874,,
2.875,Escòcia,41.428619,2.179436,875,,
2.878,Av Rasos de Peguera-Av Meridiana,41.462148,2.179674,878,,
2.879,Ctra Nacional 152-Estació de Torre Baró,41.460726,2.181445,879,,
2.88,Av Torreblanca-Av Generalitat,41.376070,2.056132,88,,
2.880,Felip II-Palència,41.418413,2.189687,880,,
2.882,Consell de Cent-Av Meridiana,41.406595,2.186510,882,,
2.883,Av Meridiana-Pl de Mossèn Clapés,41.442337,2.186438,883,,
2.885,Av Meridiana-Garbí,41.452107,2.188738,885,,
2.887,Metro Maresme/Fòrum,41.412181,2.216685,887,,
2.888,Gran Via-Maresme,41.417631,2.206185,888,,
2.8883,"Santander, 2",41.422790,2.196724,8883,,
2.8884,"Prim, 294",41.427609,2.198183,8884,,
2.8889,"Cantàbria, 79",41.425073,2.199861,8889,,
2.889,Gran Via-Maresme,41.418658,2.206966,889,,
2.8890,"Cantàbria, 82",41.424938,2.200058,8890,,
2.8898,"Via Trajana, 47-53",41.428478,2.200420,8898,,
2.89,Av Torreblanca-Pla del Vent,41.379198,2.061323,89,,
2.893,Av de la Fama-Tirso de Molina,41.350402,2.083240,893,,
2.894,Pl Can Baró,41.416195,2.162288,894,,
2.895,La Campana,41.368296,2.140017,895,,
2.897,Pl Sanllehy,41.413941,2.160814,897,,
2.898,Pl Catalana-Amílcar,41.421222,2.172909,898,,
2.899,Guipúscoa-Biscaia,41.426830,2.211073,899,,
2.90,Av Torreblanca-Rubió i Tudurí,41.377765,2.058948,90,,
2.902,Rubió i Ors-Pl Quatre Camins,41.355652,2.066665,902,,
2.903,Rubió i Ors-Almirall Vierna,41.353117,2.069307,903,,
2.904,Av Barcelona-Sant Martí de l'Erm,41.367872,2.064254,904,,
2.905,Ctra de Collblanc-Av Josep Molins,41.376210,2.105778,905,,
2.906,Ctra de Collblanc-Av Tomàs Giménez,41.376147,2.103440,906,,
2.907,Gran Via-Moianès,41.370232,2.142617,907,,
2.908,Ctra de la Bordeta-Àliga,41.373185,2.143916,908,,
2.909,Gavà-Ptge Solsona,41.371129,2.139994,909,,
2.91,Av Granvia-Miguel Hernández,41.352763,2.120214,91,,
2.910,Providència-Alzina,41.406455,2.156613,910,,
2.911,Biada-Torrent de l'Olla,41.404937,2.154317,911,,
2.912,Pg Maragall-Els Quinze,41.425590,2.175371,912,,
2.913,Indústria-Lepant,41.407479,2.171759,913,,
2.914,Gran Via-Marina,41.398610,2.180649,914,,
2.915,Vila Olímpica,41.388445,2.193668,915,,
2.916,Av Granvia-Hospital Oncològic,41.345826,2.110728,916,,
2.9168,"Via Trajana, 62",41.428577,2.198636,9168,,
2.917,Av Granvia-Cotxeres TB,41.342627,2.106545,917,,
2.92,Pl Europa,41.358353,2.126577,92,,
2.921,Pl de Sarrià,41.399879,2.121379,921,,
2.922,Ronda de Dalt-Ràfols,41.401583,2.114836,922,,
2.923,Les Corts-Mejía Lequerica,41.381911,2.127255,923,,
2.925,Mini-Estadi-Palau Blaugrana,41.380834,2.119227,925,,
2.9253,"Via Trajana, 42",41.428703,2.202428,9253,,
2.9256,"Gran Via Corts Catalanes, 839-841",41.405521,2.189367,9256,,
2.927,Gran Via-Muntaner,41.384377,2.161685,927,,
2.928,Diagonal-Muntaner,41.394302,2.150403,928,,
2.929,Diagonal-Muntaner,41.394171,2.150520,929,,
2.93,Ronda Universitat-Pl de Catalunya,41.387215,2.167814,93,,
2.930,Còrsega-Aribau,41.392221,2.153531,930,,
2.931,Via Augusta-Muntaner,41.399183,2.143539,931,,
2.9313,"Av. Paral·lel, 192-194",41.375127,2.152734,9313,,
2.932,Travessera de Gràcia-Muntaner,41.394956,2.147886,932,,
2.9323,"Glòries Catalanes, 8-15",41.403667,2.186435,9323,,
2.933,Mitre-Balmes,41.404677,2.141067,933,,
2.934,Mitre-Mandri,41.401131,2.136281,934,,
2.936,Pg Sant Gervasi-Pl Bonanova,41.407118,2.133880,936,,
2.9361,"Corts Catalanes, 493",41.380900,2.156549,9361,,
2.937,Pg Sant Gervasi- Pl John F Kennedy,41.410035,2.135811,937,,
2.9375,"Pg. Maragall, 413",41.428735,2.162797,9375,,
2.938,Provença-Aribau,41.390302,2.155509,938,,
2.9386,"Virgili, 93",41.432601,2.193049,9386,,
2.9390,"Pl. Glòries Catalanes, s/n",41.403043,2.187263,9390,,
2.9391,"Pl. Glòries Catalanes, s/n",41.402489,2.187474,9391,,
2.9398,"Corts Catalanes, 751",41.400394,2.182688,9398,,
2.94,Diagonal-Balmes,41.395404,2.155382,94,,
2.940,Mitre-Av. Sarrià,41.393021,2.131147,940,,
2.941,Gran Via-Mandoni,41.369504,2.141953,941,,
2.9410,"Meridiana, 734-742",41.452200,2.189182,9410,,
2.942,Secretari Coloma-Providència,41.410177,2.162296,942,,
2.9422,"Travessera de Dalt, 51-61",41.409283,2.154088,9422,,
2.943,Pl Espanya-Av Reina Maria Cristina,41.374124,2.149570,943,,
2.9438,"Castillejos, 201",41.403122,2.182649,9438,,
2.9440,"València, 604",41.409216,2.185448,9440,,
2.9441,"Mare de Déu del Coll, 13-17",41.408563,2.149949,9441,,
2.945,Poble Espanyol,41.369421,2.147000,945,,
2.946,Berenguer de Palou-Pont del Treball,41.423251,2.191799,946,,
2.947,Berenguer de Palou-Pare Manyanet,41.427496,2.191686,947,,
2.949,Indústria-Nàpols,41.404877,2.168282,949,,
2.95,Gran Via-Balmes,41.387854,2.165804,95,,
2.950,Almogàvers-Marina,41.394279,2.186145,950,,
2.954,Pg. Joan de Borbó-Almirall Aixada,41.377649,2.188362,954,,
2.955,Pg. Joan de Borbó,41.380030,2.187419,955,,
2.956,Pg Joan de Borbó,41.379834,2.187255,956,,
2.957,Pg Joan de Borbó-Almirall Aixada,41.377559,2.188155,957,,
2.959,Pg Joan de Borbó-Judici,41.376099,2.188942,959,,
2.96,Mitre-Muntaner,41.403095,2.138465,96,,
2.960,Pg Joan de Borbó-Pl del Mar,41.374332,2.188567,960,,
2.962,Metro Besòs,41.420481,2.207704,962,,
2.963,Cantàbria-Gran Via,41.417770,2.204180,963,,
2.965,Pont del Treball-Santander,41.422093,2.197447,965,,
2.967,Balmes-Jovellanos,41.430119,2.210319,967,,
2.968,Balmes-Almirall Oquendo,41.431327,2.207885,968,,
2.969,Pg Enric Sanchís-Sant Adrià,41.435519,2.204847,969,,
2.97,Pg de Sant Gervasi-Folgueroles,41.409499,2.135339,97,,
2.970,Pg Enric Sanchís-Santander,41.433497,2.205972,970,,
2.971,Rambla de Prim-Binéfar,41.424338,2.202513,971,,
2.972,Pl. Botticelli,41.433116,2.153152,972,,
2.973,Artesania-Pl Llucmajor,41.439606,2.174585,973,,
2.974,Artesania-Parc de la Guineueta,41.440600,2.173393,974,,
2.975,Almansa-Via Favència,41.443975,2.174337,975,,
2.977,Via Barcino-Ausona,41.449846,2.192427,977,,
2.978,Av Terra Nostra-Priorat,41.481873,2.167691,978,,
2.979,Av Riera de Sant Cugat-Pere de Montcada,41.484568,2.178859,979,,
2.98,València-Balmes,41.390198,2.160081,98,,
2.980,"Av Terra Nostra-""CEIP Mitja Costa""",41.482792,2.172908,980,,
2.981,Av Terra Nostra-Llorer,41.482406,2.170493,981,,
2.983,Av Terra Nostra-la Rosa,41.482321,2.170444,983,,
2.984,Av Terra Nostra-Dàlia,41.482688,2.172705,984,,
2.985,Av Riera de Sant Cugat-Huc de Montcada,41.484510,2.178948,985,,
2.986,Quarters-Ctra Nacional 152,41.485109,2.183332,986,,
2.988,Santaló-Travessera de Gràcia,41.394838,2.146914,988,,
2.989,Santaló-Mercat Galvany,41.396952,2.144214,989,,
2.99,Mitre-Saragossa,41.405398,2.143470,99,,
2.990,Numància-Parc Les Corts,41.386138,2.135869,990,,
2.991,Les Corts-Numància,41.387311,2.135795,991,,
2.993,Mandri-Artesa de Segre,41.402968,2.134025,993,,
2.994,Mitre-Muntaner,41.402620,2.137557,994,,
2.995,Pg Bonanova-Mandri,41.405342,2.131019,995,,
2.996,Pg Bonanova-Mandri,41.405197,2.131001,996,,
2.997,Mandri-Jardins Ca n'Altimira,41.404193,2.132682,997,,
2.998,Pl. Gibraltar,41.420126,2.151357,998,,
2.999,Santuari-La Murtra,41.419847,2.155033,999,,
STOP_0ea7fca1-4f15-4f11-b4ae-81648a3d8042,Pl. Molina,41.401690,2.146740,0ea7fca1-4f15-4f11-b4ae-81648a3d8042,,
STOP_1027fae3-1e44-41b0-9431-7c0906e1ec15,Mirador,41.367304,2.168342,1027fae3-1e44-41b0-9431-7c0906e1ec15,,
STOP_2fb3c2db-e99b-45af-a5be-e71869ee0feb,Vall d'Hebrón,41.426261,2.143278,2fb3c2db-e99b-45af-a5be-e71869ee0feb,,
STOP_5343cd24-e4d1-4c54-918f-996ef8f0c4fe,Pàdua,41.403510,2.142750,5343cd24-e4d1-4c54-918f-996ef8f0c4fe,,
STOP_5626b9aa-6c01-4274-86ed-e40262c62ac8,Castell,41.364760,2.166430,5626b9aa-6c01-4274-86ed-e40262c62ac8,,
STOP_568d09af-9691-492b-8c94-c98f7811f9f2,Tibidabo,41.421698,2.118795,568d09af-9691-492b-8c94-c98f7811f9f2,,
STOP_68a87267-7211-4a21-9374-ab470f8248c2,Provença,41.392810,2.158030,68a87267-7211-4a21-9374-ab470f8248c2,,
STOP_7e00c002-bc9c-491d-b953-0c7b339b22a9,Gràcia,41.399810,2.152130,7e00c002-bc9c-491d-b953-0c7b339b22a9,,
STOP_807691f8-8456-4f4c-a2b2-f11e344deac4,Av.tibidabo,41.409640,2.137160,807691f8-8456-4f4c-a2b2-f11e344deac4,,
STOP_864e926c-d4df-4704-a3b6-bdc281edc3b7,Torre San Sebastián,41.373772,2.187800,864e926c-d4df-4704-a3b6-bdc281edc3b7,,
STOP_8dd04dca-8ac9-4723-933c-993ec3443041,El Putxet,41.405820,2.139150,8dd04dca-8ac9-4723-933c-993ec3443041,,
STOP_97033a4b-0da3-408d-a320-b02f3c0d50b9,Avinguda Tibidabo,41.410610,2.136840,97033a4b-0da3-408d-a320-b02f3c0d50b9,,
STOP_a0e09a37-cd5e-45e8-b4f1-ad7c75dd1de0,Parc Montjuic,41.368967,2.162976,a0e09a37-cd5e-45e8-b4f1-ad7c75dd1de0,,
STOP_a4378f41-73d4-4a55-a854-479a776bcbf5,Miramar,41.370507,2.171981,a4378f41-73d4-4a55-a854-479a776bcbf5,,
STOP_d3ca4cd4-ea2f-41f5-9f84-b651307ee008,Pl. Catalunya,41.387636,2.168845,d3ca4cd4-ea2f-41f5-9f84-b651307ee008,,
STOP_ef7fe1c8-745f-4df8-8256-1d850b4c0657,Plaça del Doctor Andreu,41.415954,2.129799,ef7fe1c8-745f-4df8-8256-1d850b4c0657,,
